sa2_code,sa2_name,centroid_lat,centroid_lon
101021007,Braidwood,-35.45437687150383,149.79381375545935
101021008,Karabar,-35.37595339696881,149.23279552380106
101021009,Queanbeyan,-35.35104262195325,149.22545735891217
101021010,Queanbeyan - East,-35.35517041757369,149.2524071006286
101021012,Queanbeyan West - Jerrabomberra,-35.37759090435436,149.20284370431784
101021610,Googong,-35.428050548734454,149.23418387326996
101021611,Queanbeyan Surrounds,-35.44346577655738,149.3918446817542
101031013,Bombala,-36.877848834112775,149.0452772254073
101031014,Cooma,-36.250198008588384,149.11940359349617
101031015,Cooma Surrounds,-36.12662286189992,149.08153351417812
101031016,Jindabyne - Berridale,-36.491331266111445,148.60902243248793
101041017,Batemans Bay,-35.701117900207755,150.18171350953995
101041018,Batemans Bay - South,-35.78399516950298,150.21062844999562
101041019,Bega - Tathra,-36.72502083194517,149.90207642404897
101041020,Bega-Eden Hinterland,-36.92743224107136,149.7194581525098
101041021,Broulee - Tomakin,-35.846014182739566,150.1616935351989
101041022,Deua - Wadbilliga,-36.1767648211743,149.7467515198935
101041023,Eden,-37.03132002476824,149.89099300014018
101041024,Eurobodalla Hinterland,-35.77412235548046,150.07240465357626
101041025,Merimbula - Tura Beach,-36.90018494661625,149.88212528532333
101041026,Moruya - Tuross Head,-35.94713293244142,150.1071989742688
101041027,Narooma - Bermagui,-36.312965927793954,150.07375949663287
101051539,Goulburn,-34.750588306550455,149.71958140750388
101051540,Goulburn Surrounds,-34.515648519565126,149.60389716752536
101061541,Yass,-34.82286033799533,148.91595812575366
101061542,Yass Surrounds,-34.87631255957147,148.89316793728204
101061543,Young,-34.32111127407415,148.3530408071353
101061544,Young Surrounds,-34.309718848074326,148.49572789015855
102011028,Avoca Beach - Copacabana,-33.47541948225265,151.43017631016286
102011029,Box Head - MacMasters Beach,-33.50853382020209,151.38476182160173
102011030,Calga - Kulnura,-33.339628994324286,151.17529383675895
102011031,Erina - Green Point,-33.423244001036636,151.40250255140086
102011032,Gosford - Springfield,-33.42525894627832,151.34788820162987
102011033,Kariong,-33.43972001324141,151.29452795642297
102011034,Kincumber - Picketts Valley,-33.47045763777961,151.40274139206014
102011035,Narara,-33.3960957156125,151.33421475871594
102011036,Niagara Park - Lisarow,-33.38428093302862,151.37282010759466
102011037,Point Clare - Koolewong,-33.44818604371605,151.31632016836738
102011038,Saratoga - Davistown,-33.4774982465874,151.35756004171844
102011039,Terrigal - North Avoca,-33.44518706941302,151.42760679025224
102011040,Umina - Booker Bay - Patonga,-33.5291783887786,151.29818690719028
102011041,Wamberal - Forresters Beach,-33.40970803448021,151.449948735333
102011042,Woy Woy - Blackwall,-33.48518445026459,151.3056518641483
102011043,Wyoming,-33.40474354332135,151.36405689655695
102021044,Bateau Bay - Killarney Vale,-33.379606361100755,151.46744906442603
102021045,Blue Haven - San Remo,-33.204061365340465,151.52417463873425
102021046,Budgewoi - Buff Point - Halekulani,-33.22663451702528,151.5608687818582
102021047,Chittaway Bay - Tumbi Umbi,-33.35448084529562,151.4282814463115
102021048,Gorokan - Kanwal - Charmhaven,-33.257939407736366,151.4947532610865
102021049,Jilliby - Yarramalong,-33.172960906544795,151.32412875011522
102021050,Lake Munmorah - Mannering Park,-33.18046227408414,151.57594590178905
102021051,Ourimbah - Fountaindale,-33.31650995426432,151.33511771020054
102021052,Summerland Point - Gwandalan,-33.14097411415217,151.57690432822145
102021053,The Entrance,-33.32909276628795,151.5120353079451
102021054,Toukley - Norah Head,-33.27306827217699,151.5545856609828
102021055,Tuggerah - Kangy Angy,-33.304878070802914,151.41217741299872
102021056,Warnervale - Wadalba,-33.24203011527514,151.45815314583027
102021057,Wyong,-33.2765721141041,151.4352153258876
103011059,Bathurst - East,-33.4152531097314,149.62919678746366
103011060,Bathurst Surrounds,-33.439704500183716,149.5332924226269
103011061,Oberon,-33.887839113125395,149.7758143798584
103011612,Bathurst - South,-33.45233050550371,149.57815982419146
103011613,Bathurst - West,-33.3747769748084,149.55014095549515
103021062,Condobolin,-32.906601357971155,147.03539461811926
103021063,Cowra,-33.79105398763665,148.66102085500955
103021064,Cowra Surrounds,-33.739957004156516,148.68282553352495
103021065,Forbes,-33.461683218492524,147.92490226434742
103021066,Grenfell,-33.87925926593949,148.02590878556865
103021067,Parkes (NSW),-33.1729253387973,148.1898519710405
103021068,Parkes Surrounds,-32.95347984262536,148.00128929343936
103021069,West Wyalong,-33.900078651105254,146.9839998656218
103031070,Lithgow,-33.47863544273002,150.1247763694043
103031071,Lithgow Surrounds,-33.306789201077684,150.05138611858118
103031072,Mudgee,-32.60394155902145,149.60112973060836
103031073,Mudgee Surrounds - East,-32.74792197327517,150.02852840800932
103031074,Mudgee Surrounds - West,-32.40488098868541,149.54327183671924
103031075,Wollangambe - Wollemi,-33.16005992884426,150.38557417167925
103041076,Blayney,-33.60779729113146,149.14388777056476
103041077,Orange,-33.30129848786901,149.11262229307235
103041078,Orange - North,-33.249427165625356,149.12587860316702
103041079,Orange Surrounds,-33.14634683116545,148.84714918947648
104011080,Grafton,-29.677200410609498,152.9354554722396
104011081,Grafton Surrounds,-29.634367039157084,152.73780246898266
104011082,Maclean - Yamba - Iluka,-29.420437023689317,153.2662052332356
104021083,Bellingen,-30.448005132497908,152.71991140924786
104021084,Coffs Harbour - North,-30.282147996906982,153.10420139279785
104021085,Coffs Harbour - South,-30.315153370698905,153.0958069403586
104021086,Coramba - Nana Glen - Bucca,-30.2083714020944,153.03289915463938
104021087,Dorrigo,-30.213605368975955,152.62050787988298
104021088,Korora - Emerald Beach,-30.206108890717438,153.14082907238392
104021089,Sawtell - Boambee,-30.376119592930138,153.03710825622528
104021090,Urunga,-30.489766281893182,152.99909829779634
104021091,Woolgoolga - Arrawarra,-30.027706088030087,153.16690192886156
105011092,Bourke - Brewarrina,-29.912116131909663,145.74680680399143
105011093,Cobar,-31.873162418958298,145.48225810722968
105011094,Coonamble,-30.97900371850826,148.22423370173962
105011095,Nyngan - Warren,-31.44863855038094,147.08106896309351
105011096,Walgett - Lightning Ridge,-29.763538586749085,148.06587616184524
105021097,Broken Hill,-31.94402772502467,141.47927171953242
105021098,Far West,-31.08173216839904,142.71671146776325
105031099,Coonabarabran,-31.354136513174314,149.40657088731794
105031100,Dubbo - East,-32.247320134415574,148.6708062278065
105031101,Dubbo - South,-32.267143777946075,148.628544822555
105031102,Dubbo - West,-32.232884706630806,148.58086191431084
105031103,Dubbo Surrounds,-32.26114497098324,148.70396791152754
105031104,Gilgandra,-31.618373347174767,148.64274649535506
105031105,Narromine,-32.1806188260241,148.053081440318
105031106,Wellington,-32.65128265706541,148.96382088878516
106011107,Branxton - Greta - Pokolbin,-32.709844012444165,151.3255198999094
106011108,Cessnock,-32.83196073782905,151.36207793190144
106011109,Cessnock Surrounds,-32.96269957923694,151.18928744287535
106011110,Dungog,-32.34935863638913,151.60806845228126
106011111,Kurri Kurri - Abermain,-32.80067401397359,151.46111986285803
106011112,Singleton,-32.575213385321945,151.17727074826144
106011113,Singleton Surrounds,-32.629101413959106,151.01077970461813
106021114,Maitland,-32.76008446894712,151.53881157908424
106021116,Maitland - North,-32.6770543432186,151.57902504434654
106021614,East Maitland - Metford,-32.769845165069,151.5899664603628
106021615,Rutherford (North) - Aberglasslyn,-32.67043204050963,151.48087255300152
106021616,Rutherford (South) - Telarah,-32.73400740080899,151.49307780246707
106021617,Tenambit - East Maitland,-32.734622130873746,151.61155879640546
106021618,Thornton - Millers Forest,-32.76295172552897,151.66946869258942
106031119,Anna Bay,-32.773640082813515,152.03964216340583
106031120,Lemon Tree Passage - Tanilba Bay,-32.744259354958345,152.0019849840279
106031121,Nelson Bay Peninsula,-32.73652112087024,152.12665972287806
106031122,Raymond Terrace,-32.770378207018645,151.7566533193737
106031123,Seaham - Woodville,-32.65924487930546,151.70725810169415
106031124,Tea Gardens - Hawks Nest,-32.62784932638472,152.1269901725087
106031125,Williamtown - Medowie - Karuah,-32.71711284017446,151.89327262337375
106041126,Muswellbrook,-32.31406139362466,150.90823406904784
106041127,Muswellbrook Surrounds,-32.450212639342304,150.60755286789544
106041128,Scone,-32.05015366746318,150.85798241695088
106041129,Scone Surrounds,-31.967508751515215,150.72855479356923
107011131,Dapto - Avondale,-34.52249082553664,150.76652929210098
107011132,Horsley - Kembla Grange,-34.47747290232549,150.76419044185562
107011133,Port Kembla Industrial,-34.460981324481445,150.8856702185376
107011134,Unanderra - Mount Kembla,-34.441940784836184,150.8241187037976
107011545,Berkeley - Lake Heights - Cringila,-34.477928755309684,150.84607502887735
107011546,Port Kembla - Warrawong,-34.487972939996,150.89535761935554
107011547,Windang - Primbee,-34.515252432374346,150.87829033842002
107021135,Illawarra Catchment Reserve,-34.36939834795253,150.71553686985848
107031136,Albion Park - Macquarie Pass,-34.57681146444901,150.71915456981404
107031137,Albion Park Rail,-34.56184029139398,150.7948754885474
107031138,Kiama,-34.68180104677984,150.84346199705394
107031139,Kiama Downs - Minnamurra,-34.639584819981415,150.84898425861488
107031140,Kiama Hinterland - Gerringong,-34.68905360586901,150.75415115933268
107031141,Shellharbour - Flinders,-34.60212768166735,150.83191025743264
107031142,Shellharbour - Oak Flats,-34.564809620548246,150.82649899238083
107031143,Warilla,-34.55482921905556,150.85420128369054
107041144,Balgownie - Fairy Meadow,-34.3916890376062,150.8853565348227
107041145,Corrimal - Tarrawanna - Bellambi,-34.370868896906146,150.89710097761744
107041146,Figtree - Keiraville,-34.41914312503238,150.85464788408396
107041147,Helensburgh,-34.186465309017706,150.95315277275807
107041148,Thirroul - Austinmer - Coalcliff,-34.289181257245865,150.93798048944186
107041150,Woonona - Bulli - Russell Vale,-34.34065431506089,150.90381396725786
107041548,Wollongong - East,-34.425122876591466,150.89606971246707
107041549,Wollongong - West,-34.428824333781975,150.8781989482214
108011151,Bulahdelah - Stroud,-32.36496903116304,152.07056055350154
108011152,Forster,-32.221279771463216,152.53196943390617
108011153,Forster-Tuncurry Surrounds,-32.25050513522394,152.40329174745946
108011154,Tuncurry,-32.16067382514722,152.48560429523752
108021155,Kempsey,-31.081442708811682,152.82856096783394
108021156,Kempsey Surrounds,-30.919490771821454,152.5771043950638
108021157,Macksville - Scotts Head,-30.720972268255835,152.95357012086228
108021158,Nambucca Heads,-30.64565773536295,152.98497902049613
108021159,Nambucca Heads Surrounds,-30.689051973845242,152.75960553908456
108021160,South West Rocks,-30.91446075195122,153.04934865098073
108031161,Lord Howe Island,-31.552544408865977,159.07680181071868
108041162,Laurieton - Bonny Hills,-31.618629209254905,152.69328022756625
108041164,Port Macquarie - West,-31.437894396957585,152.8604320494869
108041165,Port Macquarie Surrounds,-31.366469659810328,152.4739360450775
108041166,Wauchope,-31.4676437525049,152.7683508414732
108041619,Port Macquarie - East,-31.454390731961958,152.92442378141823
108041620,Port Macquarie - South,-31.483783831395822,152.89351641807244
108051167,Gloucester,-31.905403368635234,151.79305175448658
108051168,Old Bar - Manning Point - Red Head,-31.972540492846097,152.5441017079485
108051169,Taree,-31.90931491372353,152.46696064116585
108051170,Taree Surrounds,-31.77594510701644,152.25497000682032
108051171,Wingham,-31.85812574455277,152.3557262602225
109011172,Albury - East,-36.05964660175795,147.01362225233834
109011173,Albury - North,-36.04098337441563,146.90232450072176
109011174,Albury - South,-36.06165234714355,146.86737441916372
109011175,Albury Surrounds,-35.756339228415456,147.18392802491127
109011176,Lavington,-36.03167736682685,146.94147726589804
109021177,Hay,-34.15016406959044,144.70806765417822
109021178,Wentworth - Buronga,-34.11418926396834,142.0411721012448
109021179,Wentworth-Balranald Region,-33.782950596932764,142.9025048982777
109031180,Corowa,-35.993837904608334,146.35846877447773
109031181,Corowa Surrounds,-35.64256774078666,146.2813381387108
109031182,Deniliquin,-35.52907588303181,144.97318174523835
109031183,Deniliquin Surrounds,-35.3072311003361,144.61225942534188
109031184,Moama,-36.057833539391375,144.7757087493572
109031185,Tocumwal - Finley - Jerilderie,-35.45323122983325,145.74453021355708
110011186,Armidale,-30.503124618222014,151.66778495015097
110011187,Armidale Surrounds - North,-30.33641540210733,151.9307440566836
110011188,Armidale Surrounds - South,-30.5774174830116,151.39433086232262
110011189,Walcha,-31.166153935045468,151.75333263228987
110021190,Glen Innes,-29.644824527300603,151.90300530518434
110021191,Inverell,-29.76259666421415,151.1100266615537
110021192,Inverell Surrounds - East,-29.45886539502503,151.11569361152365
110021193,Inverell Surrounds - West,-29.74337707293622,150.58989310026016
110021194,Tenterfield,-28.943322895047302,152.08721037820615
110031195,Moree,-29.46106044340144,149.8265460885348
110031196,Moree Surrounds,-29.229157560774723,149.70390844585972
110031197,Narrabri,-30.353133827783036,149.80282422439223
110031198,Narrabri Surrounds,-30.333174082005566,149.5223293105631
110041199,Gunnedah,-30.984412874286146,150.22302787142146
110041200,Gunnedah Surrounds,-30.990755207215237,150.1748635499637
110041201,Quirindi,-31.550476823576844,150.438098685827
110041202,Tamworth - East,-31.155431515240643,150.95503623592444
110041203,Tamworth - North,-31.092233491848837,150.9616253475904
110041204,Tamworth - West,-31.090993138166127,150.86071164951946
110041205,Tamworth Surrounds,-30.875567184226774,150.87823209750442
111011206,Belmont - Bennetts Green,-33.01894034098339,151.6783784300188
111011207,Belmont South - Blacksmiths,-33.064053797675996,151.6538690681698
111011208,Charlestown - Dudley,-32.97579834192457,151.7080064957619
111011209,Glendale - Cardiff - Hillsborough,-32.942297236577026,151.659846516374
111011210,Mount Hutton - Windale,-32.99017943964813,151.6721131360569
111011211,Redhead,-33.00903126201188,151.70971523740255
111011212,Swansea - Caves Beach,-33.130171261495754,151.6264039323634
111011213,Valentine - Eleebana,-33.00480630909863,151.64525867386524
111011214,Warners Bay - Boolaroo,-32.96326944316562,151.6410419491108
111021215,Bolton Point - Teralba,-32.96267522892741,151.60099235429922
111021216,Bonnells Bay - Silverwater,-33.10943900410217,151.5405740288272
111021217,Edgeworth - Cameron Park,-32.91374571849924,151.61474060477013
111021218,Morisset - Cooranbong,-33.082681968047865,151.4534356977377
111021219,Toronto - Awaba,-33.01627688525747,151.55892186181225
111021220,Wangi Wangi - Rathmines,-33.0552360765636,151.5812833668831
111021221,West Wallsend - Barnsley - Killingworth,-32.92943770088403,151.55807399620167
111031222,Adamstown - Kotara,-32.94418502124383,151.71174578349044
111031223,Beresfield - Hexham,-32.827392457804805,151.66017901781188
111031224,Hamilton - Broadmeadow,-32.92432511254131,151.74076018012877
111031225,Lambton - New Lambton,-32.92404815355769,151.70453481362864
111031226,Maryland - Fletcher - Minmi,-32.87547736538969,151.63803220426377
111031227,Mayfield - Warabrook,-32.891600983972964,151.7303208275804
111031228,Merewether - The Junction,-32.94726497192937,151.74343842024274
111031229,Newcastle - Cooks Hill,-32.93103424815917,151.7742223565405
111031230,Newcastle Port - Kooragang,-32.86948085712303,151.74447323368292
111031231,Shortland - Jesmond,-32.881859888092286,151.69590493847429
111031232,Stockton - Fullerton Cove,-32.85392127756997,151.82541978540297
111031233,Wallsend - Elermore Vale,-32.90329519462483,151.65604756603724
111031234,Waratah - North Lambton,-32.90402918934865,151.71754053899787
111031235,Wickham - Carrington - Tighes Hill,-32.91281133946536,151.75507803107783
112011236,Ballina,-28.847249960423834,153.5547866875987
112011237,Ballina Surrounds,-28.86005330162603,153.47191343487455
112011238,Bangalow,-28.673375066158695,153.50082936353544
112011239,Brunswick Heads - Ocean Shores,-28.54730318078945,153.5434592419984
112011240,Byron Bay,-28.68102722341288,153.60015432640708
112011241,Evans Head,-29.139272018513203,153.31380737799913
112011242,Lennox Head - Skennars Head,-28.787437408270257,153.58387035668986
112011243,Mullumbimby,-28.547872810083962,153.44294397968744
112021244,Casino,-28.844072915293005,153.04041624801548
112021245,Casino Surrounds,-28.92917544087103,152.84609393580416
112021246,Goonellabah,-28.82297033328386,153.33184774304902
112021247,Kyogle,-28.51319904546055,152.87947378106085
112021248,Lismore,-28.819508901477114,153.28598548387978
112021249,Lismore Surrounds,-28.750737379780144,153.26979851592455
112031250,Kingscliff - Fingal Head,-28.258181253821093,153.55203537800057
112031251,Murwillumbah,-28.334899335749316,153.39825692769378
112031252,Murwillumbah Surrounds,-28.378726407944537,153.29721812119996
112031253,Pottsville,-28.40027952919336,153.5084639186678
112031254,Tweed Heads,-28.216833800646775,153.44955544100992
112031550,Banora Point,-28.222075519084033,153.5362930893641
112031551,Terranora - North Tumbulgum,-28.250628647877193,153.4855429744349
112031552,Tweed Heads South,-28.201657635793264,153.5359208238691
113011256,Griffith (NSW),-34.28123257730036,146.048470518053
113011257,Griffith Surrounds,-33.89747763230466,145.68017581256308
113011258,Leeton,-34.53841924933479,146.41056821324185
113011259,Narrandera,-34.749254811510276,146.5106462979153
113021260,Tumbarumba,-36.02163464071728,148.1246477337228
113021261,Tumut,-35.317445494351,148.21828369326653
113021262,Tumut Surrounds,-35.45251068904052,148.35722472380183
113031263,Cootamundra,-34.59933671682124,148.01637329564346
113031264,Gundagai,-35.02302253834398,148.1442158561261
113031265,Junee,-34.81416149626292,147.67793377466583
113031266,Temora,-34.39329478829405,147.37988794089975
113031267,Wagga Wagga - East,-35.14987388622527,147.40108443785226
113031268,Wagga Wagga - North,-35.073520597797106,147.40650427833202
113031269,Wagga Wagga - South,-35.15366888205577,147.33974869496367
113031270,Wagga Wagga - West,-35.12936965299016,147.30872766613663
113031271,Wagga Wagga Surrounds,-35.146618950823715,147.1443050776011
114011272,Berry - Kangaroo Valley,-34.7593476388196,150.57798005005807
114011273,Callala Bay - Currarong,-34.99055931573744,150.72251500944105
114011274,Culburra Beach,-34.90222525919709,150.71039717747752
114011275,Ettrema - Sassafras - Budawang,-35.09603451719616,150.24005152492134
114011276,Huskisson - Vincentia,-35.06609114185709,150.66557268566038
114011277,North Nowra - Bomaderry,-34.8312416756465,150.57740364329754
114011278,Nowra,-34.90620049912289,150.59657489038221
114011279,St Georges Basin - Erowal Bay,-35.10337496489154,150.61279433982668
114011280,Sussex Inlet - Berrara,-35.14678056024696,150.56216261932738
114011281,Tomerong - Wandandian - Woollamia,-34.99689516736461,150.51277176213637
114011282,Ulladulla,-35.343321627111976,150.45115293307097
114011283,Ulladulla Surrounds,-35.376415183399835,150.35410797296714
114021284,Bowral,-34.486770178963965,150.4191886498528
114021285,Hill Top - Colo Vale,-34.360841258644896,150.49226969967526
114021286,Mittagong,-34.45917336606318,150.48705028809795
114021287,Moss Vale - Berrima,-34.53250883205035,150.37264333169486
114021288,Robertson - Fitzroy Falls,-34.61401594955448,150.50282113947267
114021289,Southern Highlands,-34.46523820340382,150.2491300606121
115011290,Baulkham Hills - East,-33.75998620864216,150.98803813725448
115011291,Baulkham Hills (West) - Bella Vista,-33.74249846809774,150.96462161819977
115011294,Glenhaven,-33.702110956005484,150.99884480680848
115011296,West Pennant Hills,-33.749990652681895,151.03029579327426
115011553,Castle Hill - Central,-33.73358740995904,150.9878848140136
115011554,Castle Hill - East,-33.72242900516079,151.02419057926224
115011555,Castle Hill - North,-33.71997017159917,150.99947890267381
115011556,Castle Hill - South,-33.741633788966475,151.0096529624438
115011557,Castle Hill - West,-33.718874759147326,150.9748755674119
115011558,Cherrybrook,-33.72196326254802,151.0461347505082
115011621,Kellyville - East,-33.7063463482282,150.96587620186725
115011622,Kellyville - West,-33.71856431471933,150.9475652436761
115021297,Dural - Kenthurst - Wisemans Ferry,-33.54642678707699,150.98229024878847
115021298,Galston - Laughtondale,-33.549424113577224,151.07860133608494
115031299,Bilpin - Colo - St Albans,-33.27068718369036,150.78308134335012
115031300,Kurrajong Heights - Ebenezer,-33.52720003462391,150.74864992232935
115041301,Pitt Town - McGraths Hill,-33.60226245119596,150.87999760595096
115041623,Box Hill - Nelson,-33.64439146080761,150.9065532426303
115041624,North Kellyville,-33.682964598219414,150.9485022744858
115041625,Rouse Hill - Beaumont Hills,-33.684520104026646,150.9301691128146
116011303,Blacktown (East) - Kings Park,-33.756847530866466,150.9115495721048
116011304,Blacktown (North) - Marayong,-33.7485988763511,150.88931114536425
116011306,Doonside - Woodcroft,-33.764923014326136,150.87195467231336
116011307,Lalor Park - Kings Langley,-33.7617669870946,150.93906425465568
116011560,Blacktown - South,-33.78700254813083,150.90815695900875
116011561,Blacktown - West,-33.77797421134676,150.89204494180504
116011626,Seven Hills - Prospect,-33.79256664746592,150.9208237845934
116011627,Toongabbie - West,-33.79271308601845,150.93759182341657
116021309,Glenwood,-33.735692910271304,150.93488101543173
116021562,Acacia Gardens,-33.73337076021482,150.91389756302465
116021563,Quakers Hill,-33.72413460178187,150.89079256190206
116021628,Kellyville Ridge - The Ponds,-33.70502671346519,150.91368596766765
116021629,Marsden Park - Shanes Park,-33.705137094860675,150.80746243318805
116021630,Riverstone,-33.67446492447074,150.85350670197403
116021631,Schofields (West) - Colebee,-33.71268623805724,150.8607658872121
116021632,Schofields - East,-33.69376833188815,150.89356452141865
116021633,Stanhope Gardens - Parklea,-33.71840812548856,150.9239751040671
116031313,Bidwill - Hebersham - Emerton,-33.740718024130096,150.81813198322052
116031314,Glendenning - Dean Park,-33.74412650906788,150.8558006670439
116031315,Hassall Grove - Plumpton,-33.7435208825219,150.83760389641296
116031316,Lethbridge Park - Tregear,-33.731863499456075,150.78822506297684
116031317,Mount Druitt - Whalan,-33.76497357616443,150.81285401548075
116031318,Prospect Reservoir,-33.808661899406424,150.8630349998565
116031319,Rooty Hill - Minchinbury,-33.7800972221696,150.84320317857095
117011320,Banksmeadow,-33.957236323535,151.2134881838855
117011321,Botany,-33.94909041422319,151.2006208492131
117011323,Pagewood - Hillsdale - Daceyville,-33.94082784921064,151.22292730099636
117011324,Port Botany Industrial,-33.97213642812504,151.22250368739904
117011325,Sydney Airport,-33.944328810712996,151.17860403402466
117011634,Eastlakes,-33.930815134088384,151.21052142410656
117011635,Mascot,-33.927972358280044,151.19183990494847
117021327,Petersham - Stanmore,-33.89472780991195,151.16196237918052
117021328,Sydenham - Tempe - St Peters,-33.92034748215385,151.16938610909344
117021636,Marrickville - North,-33.90625909582566,151.1616628747694
117021637,Marrickville - South,-33.915970097450234,151.1497949245606
117031329,Darlinghurst,-33.877909585854646,151.21943976518108
117031330,Erskineville - Alexandria,-33.90848546628523,151.19146383728904
117031331,Glebe - Forest Lodge,-33.87920366458832,151.184771874235
117031333,Potts Point - Woolloomooloo,-33.870101142257866,151.22408957488864
117031336,Surry Hills,-33.88561944579322,151.21197535557735
117031638,Camperdown - Darlington,-33.889300397566714,151.18475410680327
117031639,Chippendale,-33.886376111875045,151.19964774562717
117031640,Newtown (NSW),-33.898701831474284,151.17951629758267
117031641,Pyrmont,-33.86901906042223,151.19351901367125
117031642,Redfern,-33.8938715510335,151.20217164504953
117031643,Rosebery - Beaconsfield,-33.91659017362481,151.20534501072476
117031644,Sydney (North) - Millers Point,-33.864746324477395,151.2092131571829
117031645,Sydney (South) - Haymarket,-33.878008147205506,151.2042472270663
117031646,Ultimo,-33.8802522273317,151.19795254069885
117031647,Waterloo,-33.8998759206597,151.20721766381
117031648,Zetland,-33.90747481501323,151.20857517019255
118011339,Bondi - Tamarama - Bronte,-33.899973427619656,151.26498349237332
118011340,Bondi Beach - North Bondi,-33.88710427138557,151.27540152302572
118011341,Bondi Junction - Waverly,-33.897181775973266,151.25078932302637
118011342,Centennial Park,-33.89836109844372,151.23425590723141
118011344,Dover Heights,-33.87105286026699,151.2797474721885
118011345,Paddington - Moore Park,-33.89024498865704,151.22498374419897
118011346,Rose Bay - Vaucluse - Watsons Bay,-33.85997338134971,151.27413911730537
118011347,Woollahra,-33.886794320007176,151.24366988701564
118011649,Bellevue Hill,-33.8785561793654,151.25477655855642
118011650,Double Bay - Darling Point,-33.875703876067874,151.23902195949086
118021564,Kensington (NSW),-33.913375071735686,151.2207511723052
118021565,Kingsford,-33.92515536565181,151.22896118966162
118021566,Maroubra - North,-33.939223347278904,151.25041221425698
118021567,Maroubra - South,-33.94833032525586,151.2487658434778
118021568,Maroubra - West,-33.9439253195733,151.23447184402008
118021569,Randwick - North,-33.9080770388267,151.24414424231776
118021570,Randwick - South,-33.91975240429216,151.2393374192736
118021651,Coogee - Clovelly,-33.917422212761124,151.25693685869027
118021652,Malabar - La Perouse,-33.97664861636513,151.24705133184415
118021653,Matraville - Chifley,-33.96269030395706,151.23653971598074
118021654,South Coogee,-33.932465319299034,151.2544736467134
119011354,Bass Hill - Georges Hall,-33.90111958265785,150.98823443361303
119011355,Chullora,-33.89266521713595,151.0439902750938
119011356,Condell Park,-33.92669833279177,150.99998808853542
119011358,Padstow,-33.957944564492095,151.03232461693597
119011360,Revesby,-33.95201077221462,151.01622053412635
119011361,Yagoona - Birrong,-33.90220729797476,151.0201329973201
119011571,Bankstown - North,-33.91334401711468,151.03099786683
119011572,Bankstown - South,-33.92770892692079,151.0322381208788
119011655,Greenacre - North,-33.89942396283838,151.06065922656813
119011656,Greenacre - South,-33.91135233365862,151.05530767611677
119011657,Panania (North) - Milperra,-33.944464081722195,150.98439289845498
119011658,Panania (South) - Picnic Point,-33.96803817510147,151.00290066717403
119021362,Belmore - Belfield,-33.91325143354701,151.08796598759074
119021366,Punchbowl,-33.93101944201701,151.051842274819
119021367,Roselands,-33.93525486555999,151.07567426814538
119021573,Lakemba,-33.918986840558624,151.0764006447174
119021574,Wiley Park,-33.92420334641799,151.06736697270108
119021659,Campsie - North,-33.90706465543615,151.10214730357453
119021660,Campsie - South,-33.914525821029585,151.10340534762514
119021661,Canterbury - South,-33.920028903778245,151.10832344737375
119021662,Earlwood,-33.924699491390825,151.1274842608438
119021663,Kingsgrove - North,-33.93550981149603,151.09792402511087
119031370,Narwee - Beverly Hills,-33.948806706521374,151.076623025945
119031371,Oatley - Hurstville Grove,-33.97940914992478,151.08547065235524
119031372,Peakhurst - Lugarno,-33.97089662084133,151.05213772621812
119031373,Riverwood,-33.948606469277095,151.05247059434564
119031374,South Hurstville - Blakehurst,-33.98424750060065,151.10572014562877
119031664,Hurstville - Central,-33.965134656013845,151.10759784112318
119031665,Hurstville - North,-33.956743861581224,151.09732120977674
119031666,Mortdale - Oatley,-33.97464710623847,151.0700355250794
119031667,Penshurst,-33.960430283187776,151.08289262341881
119041377,Kingsgrove (South) - Bardwell Park,-33.941791733434954,151.11034928275288
119041378,Kogarah,-33.968268185313185,151.13746277890303
119041379,Kogarah Bay - Carlton - Allawah,-33.97669901093663,151.1239022620239
119041380,Monterey - Brighton-le-Sands - Kyeemagh,-33.961428822705905,151.1528115946181
119041381,Rockdale - Banksia,-33.951124404414585,151.14133461419564
119041382,Sans Souci - Ramsgate,-33.992329564772625,151.13696399373598
119041668,Arncliffe - Bardwell Valley,-33.93758549768142,151.1436832755751
119041669,Bexley - North,-33.95093807894998,151.11679802257817
119041670,Bexley - South,-33.959983532753,151.12471700291695
119041671,Wolli Creek,-33.93157002641169,151.15293997632673
120011383,Concord - Mortlake - Cabarita,-33.85434618879424,151.1057954445257
120011385,Drummoyne - Rodd Point,-33.85564474800545,151.14864680997107
120011386,Five Dock - Abbotsford,-33.86094142246742,151.12931147305312
120011672,Concord West - North Strathfield,-33.8471695211317,151.0894185001158
120011673,Rhodes,-33.82924667269086,151.08773042348574
120021387,Balmain,-33.855914973825364,151.1812945937141
120021389,Lilyfield - Rozelle,-33.86744051466223,151.16694359937364
120021674,Annandale (NSW),-33.8808264313778,151.1713556139925
120021675,Leichhardt,-33.88160104265694,151.15596865719206
120031392,Canterbury (North) - Ashbury,-33.90644070876793,151.12240408688558
120031393,Croydon Park - Enfield,-33.894569665392495,151.10286416794867
120031394,Dulwich Hill - Lewisham,-33.90199574724253,151.14118162017667
120031395,Haberfield - Summer Hill,-33.88242204853042,151.13928500198588
120031396,Homebush,-33.862929048112406,151.07519314092414
120031576,Strathfield South,-33.89507800148975,151.07701377542554
120031676,Ashfield - North,-33.88285243172436,151.12782730682648
120031677,Ashfield - South,-33.89483161298436,151.12530018324483
120031678,Burwood (NSW),-33.87817141878336,151.10210157723617
120031679,Croydon,-33.87811808002314,151.11469803548857
120031680,Strathfield - East,-33.87872152025073,151.0911032833631
120031681,Strathfield - West,-33.87874067885197,151.07550181398508
121011399,Chatswood (West) - Lane Cove North,-33.80120290218319,151.16549045219418
121011401,St Leonards - Naremburn,-33.81783996240747,151.19407831609564
121011682,Artarmon,-33.80817769398407,151.18631395763458
121011683,Castle Cove - Northbridge,-33.798934621228895,151.21663399804527
121011684,Chatswood - East,-33.79279412300674,151.18906313226788
121011685,Greenwich - Riverview,-33.82758257348459,151.17377302176862
121011686,Lane Cove,-33.81569651483428,151.1597788723168
121011687,Willoughby,-33.80160909088255,151.2014235742696
121021403,Asquith - Mount Colah,-33.659853390272424,151.1209961670279
121021404,Berowra - Brooklyn - Cowan,-33.583418122060465,151.17708532186762
121021406,Normanhurst - Thornleigh - Westleigh,-33.719129628557724,151.08163728077832
121021577,Hornsby - East,-33.70085436133247,151.10733930986387
121021578,Hornsby - West,-33.69645548631991,151.09148916185788
121021579,Wahroonga (West) - Waitara,-33.71075040355821,151.10905482511498
121031407,Gordon - Killara,-33.76055316232192,151.16264837748525
121031408,Lindfield - Roseville,-33.77773357307305,151.17597284111275
121031409,Pymble,-33.75160558834549,151.13664281126856
121031410,St Ives,-33.720869554693195,151.17078875709524
121031411,Turramurra,-33.71073045459428,151.1395529955572
121031412,Wahroonga (East) - Warrawee,-33.71634436788193,151.12072721253531
121041413,Cremorne - Cammeray,-33.82670979424294,151.22220519441427
121041414,Crows Nest - Waverton,-33.83195825738908,151.19960052895578
121041416,Neutral Bay - Kirribilli,-33.83901521474049,151.21771641667996
121041417,North Sydney - Lavender Bay,-33.839129993212225,151.20710551604958
121041688,Mosman - North,-33.8192514375441,151.243188061592
121041689,Mosman - South,-33.83509382326222,151.24552031573214
122011418,Balgowlah - Clontarf - Seaforth,-33.797809840098736,151.2538153203879
122011419,Manly - Fairlight,-33.80304546574979,151.28825551403492
122021420,Avalon - Palm Beach,-33.61873930051634,151.32622748909097
122021421,Bayview - Elanora Heights,-33.63315463166294,151.26633468627784
122021422,Newport - Bilgola,-33.65219546257233,151.3160275096943
122021690,Mona Vale - Warriewood (North),-33.67726999477656,151.29985866349108
122021691,North Narrabeen - Warriewood (South),-33.69747377966624,151.29554859153401
122031424,Beacon Hill - Narraweena,-33.75139397196783,151.26448624712867
122031425,Cromer,-33.7317353182725,151.2674614152364
122031427,Forestville - Killarney Heights,-33.766506693411706,151.2157949118796
122031429,Freshwater - Brookvale,-33.77098539548734,151.27832840767925
122031430,Manly Vale - Allambie Heights,-33.77360802654848,151.2512326377433
122031432,Terrey Hills - Duffys Forest,-33.66963202347178,151.21215505283757
122031692,Belrose,-33.72211889595438,151.21100979892722
122031693,Collaroy - Collaroy Plateau,-33.736030014791524,151.2972261250976
122031694,Dee Why (South) - North Curl Curl,-33.76067088341584,151.29184104333024
122031695,Dee Why - North,-33.75095173430154,151.287416312829
122031696,Frenchs Forest - Oxford Falls,-33.74062319069043,151.2255752214618
122031697,Narrabeen - Wheeler Heights,-33.720255941631244,151.28916178579087
123011433,Camden - Ellis Lane,-34.065441579351834,150.68212472056496
123011698,Currans Hill,-34.040745966124085,150.76696650595156
123011699,Elderslie - Narellan,-34.043347661494025,150.7187677689638
123011700,Harrington Park,-34.0252516813156,150.74006787731116
123011701,Mount Annan,-34.063728786701155,150.75823799258066
123011702,Spring Farm,-34.07074811216318,150.72503500655117
123021436,Bradbury - Wedderburn,-34.126838277711634,150.8220582860686
123021437,Campbelltown - Woodbine,-34.06488173054665,150.80832328173824
123021438,Claymore - Eagle Vale - Raby,-34.02460111022775,150.80650235473846
123021439,Holsworthy Military Area,-34.100969982587834,150.90016369387646
123021441,Leumeah - Minto Heights,-34.05393661791914,150.86083491787014
123021443,Minto - St Andrews,-34.0280675498247,150.84455600952145
123021444,Rosemeadow - Glen Alpine,-34.12037428394571,150.77446429809171
123021703,Denham Court - Bardia,-33.98083404653283,150.83658616403056
123021704,Glenfield,-33.97147582854285,150.89353743648985
123021705,Ingleburn,-34.00192275104721,150.86450887158995
123021706,Macquarie Fields,-33.99635163309256,150.89405567406985
123031445,Bargo,-34.27254098310676,150.59937803090367
123031446,Douglas Park - Appin,-34.18145685205613,150.7295142287264
123031447,Picton - Tahmoor - Buxton,-34.193445909262394,150.54409718505195
123031448,The Oaks - Oakdale,-34.05794460336651,150.55047774322725
124011449,Blackheath - Megalong Valley,-33.67377787724925,150.24554762421764
124011450,Blaxland - Warrimoo - Lapstone,-33.74209966970696,150.6209017290465
124011451,Blue Mountains - North,-33.60249016955443,150.44519836883381
124011452,Katoomba - Leura,-33.70267458229011,150.3093223182746
124011453,Lawson - Hazelbrook - Linden,-33.72405209376435,150.4622482620354
124011454,Springwood - Winmalee,-33.69035786511358,150.59479016450084
124011455,Wentworth Falls,-33.7216754658315,150.37973016352288
124021456,Blue Mountains - South,-33.9932355252013,150.2881357522698
124031457,Cambridge Park,-33.746130645285604,150.73353531352308
124031459,Emu Plains - Leonay,-33.74620835980813,150.65848731361177
124031460,Glenmore Park - Regentville,-33.78647016872781,150.67742127774494
124031461,Jamisontown - South Penrith,-33.771056619900754,150.68916964815915
124031462,Kingswood - Werrington,-33.76591170721938,150.7402539821839
124031463,Mulgoa - Luddenham - Orchard Hills,-33.83530770002866,150.68961699143844
124031464,Penrith,-33.747836753255946,150.6971207374221
124031465,Warragamba - Silverdale,-33.91818510281546,150.59888135060797
124031707,Cranebrook - Castlereagh,-33.694678488446364,150.68819837639447
124031708,Jordan Springs - Llandilo,-33.71286259788611,150.74649829264553
124041466,Richmond - Clarendon,-33.58992012769323,150.7492751027547
124041467,Windsor - Bligh Park,-33.63568579928515,150.80853835956032
124041468,Yarramundi - Londonderry,-33.65185595711427,150.72685126049635
124051469,Erskine Park,-33.81300825765656,150.79773131930392
124051470,St Clair,-33.79728049883382,150.7847001394263
124051580,Colyton - Oxley Park,-33.779477234680044,150.7962972160527
124051581,St Marys - North St Marys,-33.75954005892251,150.77500343579564
125011475,Rookwood Cemetery,-33.87420842667101,151.0556868898615
125011582,Auburn - Central,-33.85234862578377,151.0250087255237
125011583,Auburn - North,-33.84242922156676,151.03275818694567
125011584,Auburn - South,-33.86919451250877,151.02077534639744
125011585,Berala,-33.874476369790756,151.0337653385866
125011586,Lidcombe,-33.86290341166477,151.04643951154694
125011587,Regents Park,-33.883213096639516,151.0261938243852
125011709,Silverwater - Newington,-33.83463820414143,151.04911848479927
125011710,Wentworth Point - Sydney Olympic Park,-33.840168287718605,151.0686977550947
125021477,Ermington - Rydalmere,-33.81103371433885,151.05030708719016
125021478,Oatlands - Dundas Valley,-33.794413030656145,151.0395396009346
125021711,Carlingford - East,-33.771247380676165,151.05734198937978
125021712,Carlingford - West,-33.775296960572625,151.04075440091117
125031479,Chester Hill - Sefton,-33.882017061797605,150.9982471945937
125031480,Fairfield - East,-33.874467639692476,150.9728667472442
125031481,Granville - Clyde,-33.83797346304025,151.00743787096766
125031483,Guildford - South Granville,-33.85934826551722,151.00205571677537
125031484,Guildford West - Merrylands West,-33.845482645911304,150.96995290570248
125031486,Smithfield Industrial,-33.84308178747837,150.94402278308053
125031487,Yennora Industrial,-33.86009722014287,150.96649353772264
125031713,Greystanes - South,-33.82758760490174,150.94616621036883
125031714,Merrylands - Holroyd,-33.83340288524459,150.98386599938527
125031715,Pemulwuy - Greystanes (North),-33.82033192396513,150.92743669262092
125031716,South Wentworthville,-33.82303053763449,150.9694153627175
125041489,North Parramatta,-33.799036425929984,151.01201045630862
125041490,North Rocks,-33.77224815337614,151.01719840976347
125041491,Northmead,-33.79000882950679,150.9939296149001
125041493,Toongabbie - Constitution Hill,-33.791881537826704,150.96726147707835
125041494,Winston Hills,-33.77641192466617,150.9787193338363
125041588,Pendle Hill - Girraween,-33.804209235031735,150.94783107455282
125041589,Wentworthville - Westmead,-33.81320886143525,150.9770671354203
125041717,Parramatta - North,-33.81423810713013,151.00311363813543
125041718,Parramatta - South,-33.82356224946055,150.99873689357068
125041719,Rosehill - Harris Park,-33.82431540064268,151.02889791193195
126011496,Pennant Hills - Cheltenham,-33.744365507829265,151.0685106306953
126011720,Epping (East) - North Epping,-33.765077948255936,151.09145172065166
126011721,Epping (NSW) - West,-33.77280027557674,151.07174249060657
126021498,Gladesville - Huntleys Point,-33.83038240855252,151.12814437962405
126021499,Hunters Hill - Woolwich,-33.83182812402381,151.14895348448232
126021500,Macquarie Park - Marsfield,-33.778636996958205,151.1188201365705
126021501,North Ryde - East Ryde,-33.79886116570907,151.13127833193363
126021503,West Ryde - Meadowbank,-33.809569302795715,151.08368416194304
126021590,Putney,-33.82613445180266,151.10629570063637
126021722,Denistone,-33.798730177971244,151.08980788238566
126021723,Eastwood,-33.78876398258118,151.083611668318
126021724,Ryde - North,-33.807872272654755,151.11375475606738
126021725,Ryde - South,-33.8195125151393,151.10649378097298
127011504,Ashcroft - Busby - Miller,-33.91500562623022,150.8874704918055
127011505,Austral - Greendale,-33.918153131829094,150.74052707326913
127011592,Badgerys Creek,-33.89034502243274,150.72089520029505
127011593,Cecil Hills,-33.88875301828155,150.84814997978322
127011594,Green Valley,-33.90292072514698,150.86715199451882
127011595,Hinchinbrook,-33.91284171323249,150.858665202155
127011596,Hoxton Park - Carnes Hill - Horningsea Park,-33.93563237790571,150.85035574411336
127011597,West Hoxton - Middleton Grange,-33.92851445235666,150.835209228447
127011726,Cobbitty - Bringelly,-33.98216003665529,150.69307347949467
127011727,Gledswood Hills - Gregory Hills,-34.01711440726864,150.77952184028564
127011728,Leppington - Catherine Field,-33.973711521855314,150.78441727047075
127011729,Oran Park,-33.992451023049234,150.74260280979505
127021509,Bonnyrigg Heights - Bonnyrigg,-33.89257921636712,150.88113352419896
127021510,Bossley Park - Abbotsbury,-33.866158613765236,150.87211705514932
127021511,Cabramatta - Lansvale,-33.89888243368107,150.94606464904587
127021512,Cabramatta West - Mount Pritchard,-33.89935924885158,150.9077293902888
127021513,Canley Vale - Canley Heights,-33.88443967501599,150.9362643574896
127021514,Edensor Park,-33.87970484012518,150.8777795013684
127021515,Fairfield,-33.87112088323299,150.9518943013398
127021516,Fairfield - West,-33.86817352913663,150.92965829711096
127021517,Greenfield Park - Prairiewood,-33.86794359830429,150.8997038606173
127021518,Horsley Park - Kemps Creek,-33.848667648748744,150.82035584714902
127021519,Smithfield - Wetherill Park,-33.85332909731039,150.92552031838207
127021520,St Johns Park - Wakeley,-33.87903553685882,150.90540349300932
127021521,Wetherill Park Industrial,-33.84044129393591,150.8986202596719
127031522,Casula,-33.95221576569408,150.8994893709468
127031523,Chipping Norton - Moorebank,-33.92721435597146,150.9530744400593
127031524,Holsworthy - Wattle Grove,-33.99144813623353,150.9440453185521
127031599,Lurnea - Cartwright,-33.932804825756456,150.89496069567284
127031601,Warwick Farm,-33.91290707818274,150.9370051518472
127031730,Edmondson Park,-33.962689828681874,150.8576035157565
127031731,Liverpool - East,-33.92507329585682,150.923426374422
127031732,Liverpool - West,-33.92247622827025,150.91157954920516
127031733,Prestons,-33.94161990455282,150.8720739352298
128011529,Gymea - Grays Point,-34.045547293263105,151.08492117313736
128011530,Miranda - Yowie Bay,-34.03586495381462,151.1034118371816
128011531,Sylvania - Taren Point,-34.01546114618427,151.1071578126866
128011602,Caringbah,-34.03654163471291,151.12424388450685
128011603,Caringbah South,-34.05418316370743,151.12067705045317
128011604,Cronulla - Kurnell - Bundeena,-34.03179071198195,151.18521244852238
128011605,Lilli Pilli - Port Hacking - Dolans Bay,-34.06687008880347,151.1201494240596
128011606,Woolooware - Burraneer,-34.052040402583685,151.13895199848469
128021533,Heathcote - Waterfall,-34.106471210220825,150.98062920744772
128021534,Illawong - Alfords Point,-33.9948069856151,151.03380528647574
128021535,Menai - Lucas Heights - Woronora,-34.022279673805066,151.0011971577108
128021536,Oyster Bay - Como - Jannali,-34.010325208435845,151.07034704635186
128021537,Royal National Park,-34.1114223163215,151.06765238861354
128021538,Sutherland - Kirrawee,-34.03196410178001,151.0639221690505
128021607,Engadine,-34.05477103747441,151.01362156786567
128021608,Loftus - Yarrawarrah,-34.04944702138809,151.03866326803097
128021609,Woronora Heights,-34.03351668858981,151.02852294882192
201011001,Alfredton,-37.54175077520233,143.74932049554116
201011002,Ballarat,-37.556156601891594,143.83664784361008
201011005,Buninyong,-37.64386610757429,143.88077168786361
201011006,Delacombe,-37.582242652433266,143.77846682040237
201011007,Smythes Creek,-37.62025628384866,143.74620956188463
201011008,Wendouree - Miners Rest,-37.497562753408985,143.80254388954933
201011481,Ballarat East - Warrenheip,-37.57008508963018,143.9076027836382
201011482,Ballarat North - Invermay,-37.51587051207226,143.89733844760607
201011483,Canadian - Mount Clear,-37.59240891181332,143.87417580712977
201011484,Sebastopol - Redan,-37.595184790895665,143.836468389247
201021009,Bacchus Marsh Surrounds,-37.630139421083804,144.309682898629
201021010,Creswick - Clunes,-37.35411184379134,143.83544399803515
201021011,Daylesford,-37.317724567011446,144.1858137905958
201021012,Gordon (Vic.),-37.647207069091756,144.0393920054869
201031013,Avoca,-37.1088218023535,143.37384698618672
201031014,Beaufort,-37.49579712396789,143.39330547229056
201031015,Golden Plains - North,-37.77555498047446,143.62663132114315
201031016,Maryborough (Vic.),-37.04747670058353,143.74405914054415
201031017,Maryborough Surrounds,-36.981103107587636,143.7069321587555
202011018,Bendigo,-36.74833322252394,144.27024726117077
202011019,California Gully - Eaglehawk,-36.706667476153754,144.2606957372045
202011020,East Bendigo - Kennington,-36.75233376996881,144.31556562821626
202011021,Flora Hill - Spring Gully,-36.79162780620372,144.28712158184206
202011022,Kangaroo Flat - Golden Square,-36.806389169763136,144.242649025068
202011023,Maiden Gully,-36.75386759329243,144.20787478705483
202011024,Strathfieldsaye,-36.78882785663992,144.35894590176818
202011025,White Hills - Ascot,-36.67623770708082,144.32175337305424
202021026,Bendigo Surrounds - South,-36.84330942067772,144.24571716488143
202021027,Castlemaine,-37.08346889632529,144.23691634546265
202021028,Castlemaine Surrounds,-37.0468010427459,144.18978754597
202021029,Heathcote,-36.86071578685113,144.6476854067838
202021030,Kyneton,-37.22140018359829,144.5051295444782
202021031,Woodend,-37.35630931049199,144.51736502956896
202031032,Bendigo Surrounds - North,-36.56229652098475,144.36789793616512
202031033,Loddon,-36.33944482190305,143.85671056631497
203011034,Bannockburn,-38.06976447378149,144.17862420356136
203011035,Golden Plains - South,-37.94206402136055,143.9395419299377
203011036,Winchelsea,-38.255396027698296,144.0427986453794
203021037,Belmont,-38.17857473904767,144.3421281356571
203021039,Geelong,-38.16383645426235,144.36987394853074
203021040,Geelong West - Hamlyn Heights,-38.126511534082375,144.3019504794895
203021042,Highton,-38.17777262246111,144.28599293033594
203021043,Lara,-37.94773371076568,144.37800280014494
203021044,Leopold,-38.19281106658621,144.46889775299712
203021045,Newcomb - Moolap,-38.1798257733647,144.41761627715425
203021046,Newtown (Vic.),-38.153938907071264,144.33504903044218
203021047,North Geelong - Bell Park,-38.10215039432396,144.3213680442054
203021485,Charlemont,-38.21567522226049,144.3600290621879
203021486,Corio - Lovely Banks,-38.05044847686278,144.32260165747925
203021487,Grovedale - Mount Duneed,-38.22198561656614,144.29925899766948
203021488,Norlane,-38.091595033568254,144.3592855104805
203031048,Clifton Springs,-38.1739456557606,144.5760200096815
203031049,Lorne - Anglesea,-38.44188375919935,144.01970075293306
203031051,Portarlington,-38.15333235777744,144.66582022432772
203031052,Point Lonsdale - Queenscliff,-38.234321523343695,144.61668513091195
203031053,Torquay,-38.32022220010639,144.28070063902373
203031489,Barwon Heads - Armstrong Creek,-38.256444319842736,144.41960156054736
203031490,Ocean Grove,-38.238027794427005,144.53033432050788
204011054,Alexandra,-37.31839963818167,145.79439099505208
204011055,Euroa,-36.73252951722163,145.59761572585347
204011056,Kilmore - Broadford,-37.24635774608646,144.98328350669175
204011057,Mansfield (Vic.),-37.196709021942496,146.20759541350148
204011058,Nagambie,-36.820267427992846,145.1554588966834
204011059,Seymour,-37.01601391551616,145.16214534878833
204011060,Seymour Surrounds,-37.04593263294133,144.9583611523253
204011061,Upper Yarra Valley,-37.651466436708645,145.97602582778495
204011062,Yea,-37.26089412932143,145.43240874412217
204021063,Benalla,-36.57886750851195,145.99675146406153
204021064,Benalla Surrounds,-36.58106786798904,146.01649085376093
204021065,Rutherglen,-36.06601037718822,146.42605010010138
204021066,Wangaratta,-36.35889850196123,146.3096428652055
204021067,Wangaratta Surrounds,-36.591031257180816,146.43001012995688
204031068,Beechworth,-36.34218014129133,146.71468695330844
204031069,Bright - Mount Beauty,-36.8955293343101,146.9966907242261
204031070,Chiltern - Indigo Valley,-36.15637609766262,146.64926908341872
204031071,Myrtleford,-36.55263168237701,146.81070363034635
204031072,Towong,-36.35416475008569,147.5991594732436
204031073,West Wodonga,-36.11728041261385,146.790860716298
204031075,Yackandandah,-36.32983476151531,146.99782325408967
204031491,Baranduda - Leneva,-36.17580493022838,146.9396337235514
204031492,Wodonga,-36.111161045029235,146.88008574808154
205011076,Drouin,-38.13536140856191,145.80196093447583
205011077,Mount Baw Baw Region,-37.88931512818042,146.1868138345221
205011078,Trafalgar (Vic.),-38.22383759357686,146.12654970315631
205011079,Warragul,-38.2139914299039,145.9397343287303
205021080,Alps - East,-36.993595861780435,148.03581583850877
205021081,Bairnsdale,-37.82915025889101,147.61399413202994
205021082,Bruthen - Omeo,-37.31868671584617,147.58324154031254
205021083,Lake King,-37.88306911514015,147.763585973222
205021084,Lakes Entrance,-37.83978123523508,147.92807265610307
205021085,Orbost,-37.44450897988696,148.7736157062462
205021086,Paynesville,-37.9608859996242,147.56037119272787
205031087,Foster,-38.6789594023741,146.1121726140189
205031088,French Island,-38.35001047165142,145.3649032456075
205031089,Korumburra,-38.3983328881047,145.76879122778038
205031090,Leongatha,-38.45109835489305,146.04415422651206
205031091,Phillip Island,-38.49066831878274,145.24078347628708
205031092,Wilsons Promontory,-38.96012857504842,146.3677320409315
205031093,Wonthaggi - Inverloch,-38.51645972713758,145.59855693725314
205041094,Churchill,-38.358813117855384,146.41769088173996
205041095,Moe - Newborough,-38.19661147603946,146.29591414595183
205041096,Morwell,-38.207674331059046,146.42111394325002
205041098,Yallourn North - Glengarry,-38.08459837841716,146.5027514346482
205041493,Traralgon - East,-38.18846430575179,146.6189128187069
205041494,Traralgon - West,-38.20985536316029,146.5104346194762
205051099,Alps - West,-37.44806759950564,146.84780487754662
205051100,Longford - Loch Sport,-38.143677386701526,147.25306013303577
205051101,Maffra,-37.84238503620025,146.8669873687995
205051102,Rosedale,-38.15650379011889,146.78364583959933
205051103,Sale,-38.104655423285024,147.0562629395771
205051104,Yarram,-38.494205797823106,146.7518459925068
206011106,Brunswick East,-37.76890297611225,144.97766776757112
206011107,Brunswick West,-37.76331928753207,144.94254150023158
206011109,Pascoe Vale South,-37.743445050867116,144.93846472467663
206011495,Brunswick - North,-37.760629133104125,144.96303501664036
206011496,Brunswick - South,-37.77156209452514,144.9597086905821
206011497,Coburg - East,-37.745633320419415,144.9718454102549
206011498,Coburg - West,-37.74398171911234,144.95521527353776
206021110,Alphington - Fairfield,-37.77446357488281,145.02467468485486
206021112,Thornbury,-37.758164854534,145.00638356564477
206021499,Northcote - East,-37.7742747541982,145.00670344238858
206021500,Northcote - West,-37.769483858938024,144.9913980759293
206031113,Ascot Vale,-37.77697649553849,144.91367942904782
206031115,Flemington,-37.78382785294278,144.93090239707914
206031116,Moonee Ponds,-37.76562581857632,144.92142928590368
206031501,Essendon (West) - Aberfeldie,-37.75014154436107,144.89908674628583
206031502,Essendon - East,-37.751283519263964,144.91927037111844
206041117,Carlton,-37.80051321015107,144.96779860495715
206041118,Docklands,-37.81796069993424,144.94327983189552
206041119,East Melbourne,-37.81715437812945,144.98147793080054
206041120,Flemington Racecourse,-37.787999053174374,144.91257767692403
206041121,Kensington (Vic.),-37.794331522452204,144.92706769745433
206041124,Parkville,-37.7871042717568,144.95153272668884
206041125,South Yarra - West,-37.839441859465694,144.98187167188414
206041127,West Melbourne - Industrial,-37.81012193229449,144.92204344323923
206041503,Melbourne CBD - East,-37.812800097663505,144.96858695936507
206041504,Melbourne CBD - North,-37.809204257027865,144.96087784757518
206041505,Melbourne CBD - West,-37.81675111766343,144.9587028419983
206041506,North Melbourne,-37.79866918806857,144.94512126340484
206041507,Royal Botanic Gardens Victoria,-37.82776345790491,144.97669981469852
206041508,Southbank (West) - South Wharf,-37.824244051978084,144.95635989373642
206041509,Southbank - East,-37.82637005420426,144.96611425136282
206041510,West Melbourne - Residential,-37.80859344585947,144.9497584586899
206051128,Albert Park,-37.84563692232475,144.96404830587443
206051129,Elwood,-37.88092182484915,144.9855343682842
206051130,Port Melbourne,-37.838071266386066,144.9350509784176
206051134,St Kilda East,-37.86708071072882,144.99818249091106
206051511,Port Melbourne Industrial,-37.831065896902444,144.91984616984965
206051512,South Melbourne,-37.83466344783769,144.9597505400875
206051513,St Kilda - Central,-37.86400364419703,144.98615015481647
206051514,St Kilda - West,-37.86135753376208,144.9762616770873
206061135,Armadale,-37.85675997929034,145.02070475633818
206061136,Prahran - Windsor,-37.85284989095713,144.99805150833058
206061138,Toorak,-37.84161298731142,145.01762127751783
206061515,South Yarra - North,-37.83615936302101,144.9964941006031
206061516,South Yarra - South,-37.84318459839636,144.99489317105449
206071139,Abbotsford,-37.804597816059385,144.99976155991524
206071140,Carlton North - Princes Hill,-37.78571151983783,144.96812648909088
206071141,Collingwood,-37.80209110175552,144.9881357820814
206071142,Fitzroy,-37.80104373421546,144.97913347484945
206071143,Fitzroy North,-37.78407780942732,144.98430286483443
206071145,Clifton Hill - Alphington,-37.78984014322049,145.0129614505661
206071517,Richmond (South) - Cremorne,-37.82650612375492,145.00462188990304
206071518,Richmond - North,-37.814881798804564,145.00276358429838
207011146,Ashburton (Vic.),-37.867388816810255,145.08057262097049
207011147,Balwyn,-37.809805712543216,145.08055679888432
207011148,Balwyn North,-37.791890079786,145.08389379310594
207011149,Camberwell,-37.83844160850202,145.07401596393584
207011150,Glen Iris - East,-37.854744657193294,145.07199962893048
207011152,Hawthorn East,-37.83128195592961,145.04990590567135
207011154,Kew East,-37.79056756240156,145.0523855660902
207011155,Surrey Hills (West) - Canterbury,-37.824500090361326,145.08403224120795
207011519,Hawthorn - North,-37.818013226185236,145.02854217501377
207011520,Hawthorn - South,-37.82927742851099,145.03388992538095
207011521,Kew - South,-37.80875156013525,145.04657010729028
207011522,Kew - West,-37.79976394050253,145.02398069733178
207021156,Bulleen,-37.768884135900805,145.08717985435052
207021157,Doncaster,-37.7848279812194,145.12385256512857
207021159,Templestowe,-37.75404628649225,145.14863351067643
207021160,Templestowe Lower,-37.763867379155705,145.11227191848246
207021424,Doncaster East - North,-37.769438061983564,145.16925672915704
207021425,Doncaster East - South,-37.79151193174596,145.15669136922443
207031161,Blackburn,-37.816557199082496,145.15290735405736
207031162,Blackburn South,-37.839357656775434,145.14653987077844
207031163,Box Hill,-37.8290370187204,145.12474129201303
207031164,Box Hill North,-37.804692548607555,145.1226912804613
207031165,Burwood (Vic.),-37.848064499172175,145.11294424241436
207031166,Burwood East,-37.85358595099212,145.15041548910636
207031167,Surrey Hills (East) - Mont Albert,-37.82429411412417,145.10689541552438
208011168,Beaumaris,-37.980802818421125,145.03775024628254
208011169,Brighton (Vic.),-37.908187155949335,144.99581672992053
208011170,Brighton East,-37.91714821627711,145.016304927209
208011171,Highett (West) - Cheltenham,-37.95744545201916,145.03796268463967
208011172,Hampton,-37.937661173375645,145.01424668946933
208011173,Sandringham - Black Rock,-37.96085077821748,145.01710412597077
208021174,Bentleigh - McKinnon,-37.919476539067105,145.03797130236705
208021176,Carnegie,-37.893390199308385,145.05589764101882
208021177,Caulfield - North,-37.87388025050718,145.02290289980087
208021178,Caulfield - South,-37.89137989329291,145.02536189009726
208021179,Elsternwick,-37.8869619400881,145.00719933386307
208021180,Hughesdale,-37.899479896727144,145.0811358934781
208021181,Murrumbeena,-37.89683709180151,145.07036812614837
208021182,Ormond - Glen Huntly,-37.90036677786109,145.04142247126765
208021426,Bentleigh East - North,-37.91482338034217,145.06804914578456
208021427,Bentleigh East - South,-37.9294132527184,145.06532628152354
208031183,Aspendale Gardens - Waterways,-38.01909925717829,145.12307559256035
208031184,Braeside,-37.99801955896,145.1222321313937
208031185,Carrum - Patterson Lakes,-38.0713058308222,145.13919429878857
208031186,Chelsea - Bonbeach,-38.05659585288133,145.12461167720537
208031187,Chelsea Heights,-38.04084252547244,145.13423735749123
208031188,Highett (East) - Cheltenham,-37.96117862200042,145.0660784599627
208031189,Edithvale - Aspendale,-38.028229240437945,145.10747658483524
208031190,Mentone,-37.9816445644665,145.06904867400414
208031191,Moorabbin - Heatherton,-37.9503444932019,145.07932047249858
208031192,Moorabbin Airport,-37.97745640812206,145.09951787817167
208031193,Mordialloc - Parkdale,-37.99600418635104,145.08944327127705
208041194,Malvern - Glen Iris,-37.856416351443364,145.04226882548417
208041195,Malvern East,-37.876836385352426,145.065846676532
209011196,Bundoora - East,-37.69881440350007,145.06833200034362
209011197,Greensborough,-37.700101161627416,145.11389744281425
209011198,Heidelberg - Rosanna,-37.745712254157155,145.06965456277456
209011199,Heidelberg West,-37.74299145629629,145.04640643143895
209011200,Ivanhoe,-37.769032697911655,145.04307802463407
209011201,Ivanhoe East - Eaglemont,-37.76857032703159,145.06279369640288
209011202,Montmorency - Briar Hill,-37.72885500566102,145.11968996018703
209011203,Viewbank - Yallambie,-37.73122262929275,145.0882401635387
209011204,Watsonia,-37.70490536395713,145.0841468611365
209021205,Kingsbury,-37.714561194068686,145.04904289392346
209021428,Preston - East,-37.74275958069472,145.0160009494181
209021429,Preston - West,-37.73993976656769,144.99006482414555
209021523,Reservoir - North East,-37.705949010636616,145.02120783781962
209021524,Reservoir - North West,-37.699966160071405,144.9939838026669
209021525,Reservoir - South East,-37.72534994573844,145.02201805610235
209021526,Reservoir - South West,-37.71781641185742,144.9939310918225
209031209,Eltham,-37.714707118082835,145.1568188560273
209031210,Hurstbridge,-37.63757935083897,145.1943355598138
209031211,Kinglake,-37.49107322029598,145.40824803156042
209031212,Panton Hill - St Andrews,-37.5958382051735,145.2647499136736
209031213,Plenty - Yarrambat,-37.65351739611104,145.12385004530242
209031214,Research - North Warrandyte,-37.69900248838636,145.2206186316051
209031215,Wattle Glen - Diamond Creek,-37.66774018542902,145.1673032218974
209041216,Bundoora - North,-37.68282524844743,145.07119442119543
209041217,Bundoora - West,-37.69291651036416,145.05257903246678
209041220,Mill Park - North,-37.659520321014526,145.06771086999817
209041221,Mill Park - South,-37.67140213323388,145.05923050617793
209041223,Thomastown,-37.6838553202751,145.0082743063823
209041224,Wallan,-37.38480992432801,145.07161180500216
209041225,Whittlesea,-37.49791835496181,145.10197054645576
209041431,Epping - East,-37.6357885564021,145.04538858983386
209041432,Epping - South,-37.63921376650538,144.99650835829348
209041433,Epping (Vic.) - West,-37.631941176870235,145.01004958604767
209041435,South Morang - North,-37.623713251349535,145.08253670713674
209041436,South Morang - South,-37.64572698713841,145.08558293321073
209041437,Wollert,-37.59093325832104,145.005062695943
209041527,Doreen - North,-37.58819051980872,145.12684305801062
209041528,Doreen - South,-37.611445216603926,145.12106834700012
209041529,Lalor - East,-37.66897548114341,145.02835790514197
209041530,Lalor - West,-37.66058910309681,144.99461656166403
209041531,Mernda - North,-37.58425013308125,145.0855004239594
209041532,Mernda - South,-37.60591202004485,145.07558135795267
210011226,Airport West,-37.72382122588625,144.88129954054875
210011227,Essendon Airport,-37.7269071388915,144.9004087533899
210011228,Keilor,-37.71894505868608,144.84445688801222
210011230,Niddrie - Essendon West,-37.74499595722344,144.88489262897528
210011231,Strathmore,-37.729928060855386,144.9136721022157
210011533,Avondale Heights,-37.76155119034713,144.86260636688883
210011534,Keilor East,-37.74218706469572,144.86611322618825
210021232,Gisborne,-37.49547806678465,144.55519398219914
210021233,Macedon,-37.41192633902679,144.5732594862624
210021234,Riddells Creek,-37.438246138647095,144.6777004084527
210021235,Romsey,-37.34992099820278,144.7634387301574
210031236,Coburg North,-37.72699083367974,144.96745555465895
210031237,Fawkner,-37.705234042987385,144.96960604186924
210031439,Gowanbrae,-37.702801341470256,144.89755150843254
210031440,Hadfield,-37.710108302223105,144.9502981473104
210031535,Glenroy - East,-37.7019468835437,144.9349535460315
210031536,Glenroy - West,-37.70509773333387,144.90966151474643
210031537,Oak Park,-37.71960428760636,144.91789214669046
210031538,Pascoe Vale,-37.724538591296145,144.9388992277992
210041240,Sunbury,-37.539434105613196,144.76756908453868
210041539,Diggers Rest,-37.61598771528123,144.68246417586874
210041540,Sunbury - South,-37.61363502053068,144.73789130558222
210041541,Sunbury - West,-37.53811089445544,144.67206805424314
210051242,Broadmeadows,-37.68408259321366,144.92932192199524
210051243,Campbellfield - Coolaroo,-37.66391835029183,144.95184316000518
210051245,Gladstone Park - Westmeadows,-37.67627031524251,144.8907978847166
210051246,Greenvale - Bulla,-37.623626872052306,144.83536122522432
210051247,Meadow Heights,-37.65116469142193,144.91855478589937
210051248,Melbourne Airport,-37.676418993678034,144.83651602109882
210051250,Tullamarine,-37.69613981379363,144.87723132843507
210051441,Craigieburn - Central,-37.59216072352633,144.93560302319148
210051442,Craigieburn - North,-37.570664221210784,144.94325454786252
210051443,Craigieburn - South,-37.60444546736818,144.9187987551955
210051445,Mickleham - Yuroke,-37.543589936519304,144.90191660844215
210051542,Craigieburn - North West,-37.570788709642535,144.9045316486766
210051543,Craigieburn - West,-37.58530488803792,144.90476895936868
210051544,Roxburgh Park (South) - Somerton,-37.63384238726836,144.94104401574316
210051545,Roxburgh Park - North,-37.61888865216587,144.9247670884506
211011251,Bayswater,-37.845442375382085,145.2647653960977
211011254,Knoxfield - Scoresby,-37.8972184879662,145.23046661287586
211011255,Lysterfield,-37.92696530104256,145.29080949888407
211011256,Rowville - Central,-37.919383439196174,145.24316936290785
211011257,Rowville - North,-37.907141541279074,145.26086035812583
211011258,Rowville - South,-37.935519210521264,145.23884322960507
211011259,Wantirna,-37.85232291328032,145.22597517872603
211011260,Wantirna South,-37.87365105532922,145.22091606971634
211011446,Boronia,-37.856290233203154,145.28596619900986
211011447,Ferntree Gully - North,-37.877304771435746,145.285558182912
211011448,Ferntree Gully (South) - Upper Ferntree Gully,-37.89282459930698,145.28381104426413
211011449,The Basin,-37.85568715540555,145.3213725267247
211021261,Donvale - Park Orchards,-37.78456884024856,145.20305392450064
211021262,Warrandyte - Wonga Park,-37.74309157789821,145.242882377538
211031263,Bayswater North,-37.828479743137436,145.29289061118234
211031265,Croydon Hills - Warranwood,-37.77295315700295,145.26872391218672
211031266,Ringwood,-37.81142043722298,145.2333715819303
211031267,Ringwood East,-37.821488582375984,145.24867771114228
211031268,Ringwood North,-37.79464991593902,145.2306877550432
211031450,Croydon - East,-37.80101924058075,145.29122664002784
211031451,Croydon - West,-37.78887597010368,145.27843745219448
211031452,Croydon South,-37.81508591641971,145.2793228598088
211041269,Forest Hill,-37.839869259375845,145.17104822637117
211041270,Mitcham (Vic.),-37.81817667169852,145.19900732752885
211041271,Nunawading,-37.81736132709769,145.17653064583408
211041272,Vermont,-37.83843228452281,145.19929130942037
211041273,Vermont South,-37.85438681278529,145.18781681883786
211051274,Belgrave - Selby,-37.938728391588484,145.35515313758498
211051275,Chirnside Park,-37.7385998679026,145.3143152606731
211051276,Healesville - Yarra Glen,-37.62612489418631,145.49616334795965
211051277,Kilsyth,-37.81542453062402,145.32033904400063
211051278,Lilydale - Coldstream,-37.71378886145736,145.38883802132023
211051279,Monbulk - Silvan,-37.86407733255089,145.45872263369193
211051280,Montrose,-37.81113493489812,145.3479488222177
211051281,Mooroolbark,-37.78133717316531,145.3256707762223
211051282,Mount Dandenong - Olinda,-37.861831956370715,145.37567942891548
211051283,Mount Evelyn,-37.7872902877167,145.38821045731743
211051284,Upwey - Tecoma,-37.90424872766397,145.33073141951337
211051285,Wandin - Seville,-37.76062709303304,145.4639711185904
211051286,Yarra Valley,-37.76789148764013,145.68028818384042
212011289,Emerald - Cockatoo,-37.953162381055314,145.56165681764548
212011546,Beaconsfield - Officer,-38.04234653716816,145.4003912964331
212011547,Bunyip - Garfield,-38.079881267448805,145.6469697119476
212011548,Koo Wee Rup,-38.207370239701916,145.55138677473852
212011549,Pakenham - North East,-38.05303026342517,145.50675914249425
212011550,Pakenham - North West,-38.04164370695122,145.45402441562214
212011551,Pakenham - South East,-38.093854510137966,145.51549853680143
212011552,Pakenham - South West,-38.09161063470656,145.46506734254152
212021293,Berwick - North,-38.02513627586892,145.3488364098698
212021295,Doveton,-37.990601758639336,145.24020028032837
212021297,Hallam,-38.00774907409663,145.2684948207196
212021299,Narre Warren North,-37.98631027707363,145.33040100140505
212021453,Endeavour Hills - North,-37.95946913650818,145.25802648726
212021454,Endeavour Hills - South,-37.98337683758592,145.26079647341356
212021455,Narre Warren - North East,-38.00505474665073,145.3094234256649
212021456,Narre Warren - South West,-38.02480175632695,145.30407755992053
212021553,Berwick - South East,-38.064500488094474,145.35670686018057
212021554,Berwick - South West,-38.05456756348912,145.3304039243705
212031300,Cranbourne,-38.1068938620495,145.27571041091397
212031303,Cranbourne South,-38.151451299135374,145.31292160565445
212031304,Cranbourne West,-38.10184543278062,145.24840409433003
212031306,Lynbrook - Lyndhurst,-38.06203601908055,145.25315223572125
212031308,Pearcedale - Tooradin,-38.20445799976017,145.31156361112414
212031457,Narre Warren South - East,-38.05902801869879,145.3125715567507
212031458,Narre Warren South - West,-38.05009564900011,145.2920464340029
212031555,Clyde North - North,-38.08485903564932,145.35752855062455
212031556,Clyde North - South,-38.10763776822516,145.36361388144968
212031557,Cranbourne East - North,-38.1022441113629,145.31289965237178
212031558,Cranbourne East - South,-38.12249694966815,145.3042189504029
212031559,Cranbourne North - East,-38.07955506633797,145.31543417678725
212031560,Cranbourne North - West,-38.07514399803209,145.27992612160963
212031561,Hampton Park - East,-38.04345990993992,145.27526834497215
212031562,Hampton Park - West,-38.030820877309104,145.2578972743648
212041309,Clarinda - Oakleigh South,-37.93856300211392,145.09904901519909
212041310,Clayton South,-37.94306024602735,145.1252140321663
212041312,Dandenong North,-37.95591404974386,145.21424050131722
212041313,Dingley Village,-37.97490307315623,145.12713112618997
212041316,Noble Park North,-37.95124939236459,145.19082844808534
212041317,Springvale,-37.94569491501621,145.15785591762753
212041318,Springvale South,-37.970844186200026,145.14786150435242
212041459,Noble Park - East,-37.96392250594429,145.18174485190715
212041460,Noble Park - West,-37.97393915922607,145.1727397339755
212041563,Dandenong - North,-37.9812863824685,145.21546777402258
212041564,Dandenong - South,-38.03772596894759,145.20889760343056
212041565,Keysborough - North,-37.989970533462575,145.1720571165823
212041566,Keysborough - South,-38.021384987991176,145.16164636358803
212051319,Ashwood - Chadstone,-37.87242565241887,145.10145267618086
212051321,Glen Waverley - East,-37.881522297458694,145.17831837441582
212051322,Glen Waverley - West,-37.88169987329466,145.1560705691369
212051323,Mount Waverley - North,-37.86646032507371,145.13023392414408
212051324,Mount Waverley - South,-37.887263435240556,145.12720266963058
212051325,Mulgrave,-37.92568227729209,145.17586886862694
212051326,Oakleigh - Huntingdale,-37.90848123799056,145.10120740353733
212051327,Wheelers Hill,-37.90758541546949,145.1868658900963
212051567,Clayton (North) - Notting Hill,-37.91054895598224,145.13813917299663
212051568,Clayton - Central,-37.922683437486796,145.12472726784642
213011328,Ardeer - Albion,-37.77615014155842,144.8096002372278
213011329,Cairnlea,-37.75931482882328,144.7878074463896
213011331,Delahey,-37.719802972833754,144.77731968033552
213011332,Keilor Downs,-37.7262877211808,144.812906937335
213011333,Kings Park (Vic.),-37.73902975336015,144.7705069408209
213011334,St Albans - North,-37.73716457041965,144.80238867190073
213011335,St Albans - South,-37.75335544446539,144.80763298700697
213011336,Sunshine,-37.78932129154787,144.83425170967746
213011337,Sunshine North,-37.76392841970511,144.8361888745353
213011338,Sunshine West,-37.80200731785567,144.8182725262866
213011339,Sydenham,-37.69979601130215,144.76424231043515
213011340,Taylors Lakes,-37.68850999400516,144.78596993893788
213011569,Deer Park,-37.7686614440531,144.77128896927192
213011570,Derrimut,-37.79879464126064,144.77602651308536
213021341,Altona,-37.86030590811103,144.81501006951478
213021342,Altona Meadows,-37.880989041507306,144.78443346967123
213021343,Altona North,-37.8357238293399,144.83609012740285
213021344,Newport,-37.83762736717977,144.8822217821514
213021345,Seabrook,-37.88092059511546,144.758655992772
213021346,Williamstown,-37.85912839742459,144.88478885209784
213031347,Braybrook,-37.78468776831933,144.8629921161142
213031348,Footscray,-37.79812900895632,144.89731865657603
213031349,Maribyrnong,-37.7726886674939,144.88776147968588
213031350,Seddon - Kingsville,-37.80766727908545,144.88634185859743
213031351,West Footscray - Tottenham,-37.80202771876065,144.86450708113392
213031352,Yarraville,-37.81797645729221,144.88197183213893
213041353,Bacchus Marsh,-37.637924473939535,144.4546339003987
213041358,Melton West,-37.66486954150176,144.5426035406011
213041359,Rockbank - Mount Cottrell,-37.760392678057144,144.66723097275639
213041360,Taylors Hill,-37.71455724013124,144.74900958376367
213041461,Burnside,-37.7492123366272,144.75302696155154
213041462,Burnside Heights,-37.732231010776346,144.7556314493614
213041463,Caroline Springs,-37.73892477603237,144.73736490852093
213041571,Brookfield,-37.69934225985261,144.54055050350243
213041572,Cobblebank - Strathtulloh,-37.722048485154275,144.598505164595
213041573,Eynesbury - Exford,-37.75507677034105,144.53095804005173
213041574,Fraser Rise - Plumpton,-37.687006020720794,144.69081236109952
213041575,Hillside,-37.68996666722256,144.7410872472524
213041576,Kurunjang - Toolern Vale,-37.6162385240193,144.59360634872644
213041577,Melton,-37.68575381638618,144.59580174435288
213041578,Melton South - Weir Views,-37.71786388328573,144.56846021857697
213051361,Hoppers Crossing - North,-37.86244329913418,144.70125453766596
213051362,Hoppers Crossing - South,-37.873278073878105,144.68536109141613
213051363,Laverton,-37.83953550392684,144.77804544417998
213051368,Werribee - South,-37.95135269767817,144.65289403068618
213051464,Point Cook - East,-37.91313168900725,144.7701073222951
213051466,Point Cook - South,-37.91133683599551,144.7334466754769
213051467,Werribee - East,-37.88517717614438,144.6619507109489
213051468,Werribee - West,-37.91965555140819,144.54848175650122
213051579,Manor Lakes - Quandong,-37.84848643010286,144.51868095200354
213051580,Point Cook - North East,-37.886458400386545,144.74357949184244
213051581,Point Cook - North West,-37.88535201368864,144.72616537353548
213051582,Tarneit (West) - Mount Cottrell,-37.824216668333776,144.6243249990539
213051583,Tarneit - Central,-37.840689604977705,144.68049043762736
213051584,Tarneit - North,-37.81816089101452,144.68160848818115
213051585,Tarneit - South,-37.85777146966785,144.66095705781382
213051586,Truganina - North,-37.82405929633011,144.7366053957022
213051587,Truganina - South East,-37.847706289959774,144.74269851962552
213051588,Truganina - South West,-37.84956843367501,144.72090158977574
213051589,Wyndham Vale - North,-37.82704244560865,144.5650199847387
213051590,Wyndham Vale - South,-37.889218670166414,144.6167861049975
214011370,Carrum Downs,-38.09277535270042,145.1757935839717
214011371,Frankston,-38.15411010018643,145.1396466459224
214011372,Frankston North,-38.133606927897084,145.15804113631646
214011373,Frankston South,-38.17644814240583,145.12946329606197
214011374,Langwarrin,-38.162616861174904,145.19592895073453
214011375,Seaford (Vic.),-38.104818735861286,145.1384468262741
214011376,Skye - Sandhurst,-38.10137207824193,145.21507956610765
214021377,Dromana,-38.3358536037483,144.99912762225588
214021378,Flinders,-38.398004245483705,145.00011039184776
214021379,Hastings - Somers,-38.345776117322615,145.1646559616592
214021381,Mount Eliza,-38.19507213222598,145.09289133638862
214021382,Mount Martha,-38.275462899841045,145.03073615582218
214021383,Point Nepean,-38.37859993634363,144.79660069411327
214021384,Rosebud - McCrae,-38.36895784647416,144.90744943357637
214021385,Somerville,-38.24114165843344,145.16389677604982
214021591,Mornington - East,-38.234015752977854,145.06759569208424
214021592,Mornington - West,-38.222217178600786,145.04350213144448
215011386,Ararat,-37.262448223994355,142.97560968011646
215011387,Ararat Surrounds,-37.48989002499553,142.83449041798482
215011388,Horsham,-36.731755155006056,142.21450061705696
215011389,Horsham Surrounds,-36.82150304434914,142.08928110067686
215011390,Nhill Region,-36.097417470558895,141.5761134767708
215011391,St Arnaud,-36.67521661911769,143.12642448744646
215011392,Stawell,-37.0215440545398,142.69582965703162
215011393,West Wimmera,-36.952342469520325,141.34344110690813
215011394,Yarriambiack,-35.98709213820078,142.4223986865691
215021395,Irymple,-34.24152233907703,142.1811204457136
215021396,Merbein,-34.1814905914924,142.03622213143984
215021398,Mildura Surrounds,-34.88182951347211,141.6714628620104
215021399,Red Cliffs,-34.33674200794499,142.22697101142003
215021469,Mildura - North,-34.180674111403754,142.1558280408718
215021470,Mildura - South,-34.22070892001568,142.11083889786778
215031400,Buloke,-35.90839686622086,143.00544567606022
215031401,Gannawarra,-35.75150693318869,143.80251147677572
215031402,Kerang,-35.724602618244006,143.94549945626724
215031403,Robinvale,-34.65217171607407,142.76692677736332
215031404,Swan Hill,-35.362173909412824,143.51179187894172
215031405,Swan Hill Surrounds,-35.12619950826082,143.1267854161728
216011406,Echuca,-36.16372407188323,144.77212831190772
216011407,Kyabram,-36.25550210051952,144.97816083972344
216011408,Lockington - Gunbower,-36.17437644953398,144.47034201115554
216011409,Rochester,-36.33480407497733,144.73667585487146
216011410,Rushworth,-36.578947205445864,144.84318196730842
216021411,Cobram,-35.944388272842716,145.6683232830459
216021412,Moira,-36.147247060100284,145.89601420767343
216021413,Numurkah,-36.01432536389558,145.30154854988467
216021414,Yarrawonga,-36.03763403808985,146.0026878386321
216031415,Mooroopna,-36.39880473689771,145.3461163897085
216031416,Shepparton - North,-36.34282533166404,145.40136295385832
216031418,Shepparton Surrounds - East,-36.373337891489776,145.53987724838206
216031419,Shepparton Surrounds - West,-36.422866263363126,145.21279368177284
216031593,Kialla,-36.45635553891908,145.41056047748836
216031594,Shepparton - South East,-36.39994239785333,145.45837695584987
217011420,Glenelg (Vic.),-37.865548529149436,141.38234667487822
217011421,Hamilton (Vic.),-37.74581343011462,142.01761098067973
217011422,Portland,-38.340240421959436,141.584110441362
217011423,Southern Grampians,-37.53615264273712,142.02861208677666
217031471,Camperdown,-38.228594411304925,143.15921536243118
217031472,Colac,-38.35883055360304,143.57854389325504
217031473,Colac Surrounds,-38.29782484350828,143.63638965083663
217031474,Corangamite - North,-38.0218079801305,143.26068333195843
217031475,Corangamite - South,-38.46317760749294,143.10648907461407
217031476,Otway,-38.642060378171514,143.55394293940597
217041477,Moyne - East,-38.094279858807965,142.71128307705928
217041478,Moyne - West,-38.15654250099784,142.1486866728248
217041479,Warrnambool - North,-38.34464545458301,142.49575619303317
217041480,Warrnambool - South,-38.38988313229592,142.57424177624992
301011001,Alexandra Hills,-27.53249605096549,153.2291453114757
301011002,Belmont - Gumdale,-27.507091845557202,153.15865315762977
301011003,Birkdale,-27.49970790439807,153.21073874195736
301011004,Capalaba,-27.543079083334742,153.20294402462918
301011005,Thorneside,-27.484446225659383,153.2007062517083
301011006,Wellington Point,-27.494779269485196,153.2414666348746
301021007,Cleveland,-27.53294801455628,153.267477771036
301021008,Ormiston,-27.510106820790455,153.2551196888476
301021009,Redland Bay,-27.647881353676414,153.29081692838767
301021011,Sheldon - Mount Cotton,-27.60767754566096,153.21689294546985
301021012,Thornlands,-27.56767657344189,153.2608905723857
301021013,Victoria Point,-27.587077483405228,153.28688755425023
301021550,North Stradbroke Island,-27.545461041722376,153.45257519116774
301021551,Southern Moreton Bay Islands,-27.651016440362895,153.36370452103836
301031014,Brisbane Port - Lytton,-27.381129278951438,153.19780856194325
301031015,Manly - Lota,-27.46240269922408,153.1855733397371
301031016,Manly West,-27.46748766093549,153.16594993227923
301031017,Murarrie,-27.453975383674752,153.108217720778
301031018,Tingalpa,-27.47359214950185,153.12704580499948
301031019,Wakerley,-27.48277228841577,153.156860361263
301031020,Wynnum,-27.44039843872563,153.1671115568243
301031021,Wynnum West - Hemmant,-27.449727170585046,153.14098183392105
302011022,Bald Hills,-27.30750809374007,153.01973277393836
302011023,Bridgeman Downs,-27.352076626809218,152.9943547882182
302011024,Carseldine,-27.347421578783536,153.01545962483436
302011025,Everton Park,-27.400773470615583,152.9873725880187
302011026,McDowall,-27.38242755556651,152.99175625300913
302021027,Aspley,-27.366861030676567,153.01848963804122
302021028,Chermside,-27.385424037855483,153.032047995681
302021029,Chermside West,-27.38316834648033,153.01238981611982
302021030,Geebung,-27.37258403546764,153.04727868625028
302021031,Kedron - Gordon Park,-27.406133499060815,153.0304615890054
302021032,Stafford,-27.409508445322675,153.0102450078562
302021033,Stafford Heights,-27.396872521746367,153.00916573840175
302021034,Wavell Heights,-27.392231316786088,153.04753396343204
302031035,Boondall,-27.34880645402666,153.0697117715264
302031036,Brisbane Airport,-27.392554455814945,153.11780711100965
302031037,Eagle Farm - Pinkenba,-27.434864981497384,153.0966072176932
302031038,Northgate - Virginia,-27.38385235176504,153.06771632877764
302031039,Nudgee - Banyo,-27.367139167915408,153.0895323446234
302031040,Nundah,-27.402492422728265,153.06205101599411
302041041,Bracken Ridge,-27.320080514575313,153.03422634250978
302041042,Brighton (Qld),-27.296489337835585,153.05532484945635
302041043,Deagon,-27.32781019524828,153.05956735225703
302041044,Sandgate - Shorncliffe,-27.320471258029507,153.06841045878207
302041045,Taigum - Fitzgibbon,-27.340614551252813,153.0388195442152
302041046,Zillmere,-27.358421607702763,153.03890807453237
303011047,Camp Hill,-27.496304005817304,153.0780029253577
303011048,Cannon Hill,-27.472374260068563,153.09475134568405
303011049,Carina,-27.48755833331802,153.09881433728813
303011050,Carina Heights,-27.507210151675242,153.09126173763102
303011051,Carindale,-27.51058685975347,153.11323161168744
303021052,Annerley,-27.512277198946187,153.03247881834264
303021053,Coorparoo,-27.498798501822208,153.0614553961054
303021054,Fairfield - Dutton Park,-27.502156873272824,153.0246043640621
303021055,Greenslopes,-27.507063033776163,153.04773705009154
303021056,Holland Park,-27.518490107263673,153.07010838856354
303021057,Holland Park West,-27.5262537676043,153.06046660383984
303021058,Woolloongabba,-27.49309275159444,153.03659216240612
303021059,Yeronga,-27.521257959775994,153.01059962988126
303031060,Eight Mile Plains,-27.579295995852803,153.0920838734138
303031061,Macgregor (Qld),-27.56531482237131,153.07302245761707
303031062,Mansfield (Qld),-27.534811216419246,153.10513733451197
303031063,Mount Gravatt,-27.533598533621202,153.0805104383866
303031064,Rochedale - Burbank,-27.563686465019295,153.14636190012445
303031065,Upper Mount Gravatt,-27.55344295966721,153.08143947964345
303031066,Wishart,-27.55447625303992,153.10107283010078
303041067,Coopers Plains,-27.565674634912327,153.03651547650256
303041068,Moorooka,-27.534348454505725,153.02458442349007
303041069,Robertson,-27.565371945081168,153.05740772855785
303041070,Salisbury - Nathan,-27.54888563119248,153.04420059108935
303041071,Tarragindi,-27.52708176620228,153.04558623291496
303051072,Algester,-27.612739722694897,153.03241244726027
303051073,Calamvale - Stretton,-27.628274792057606,153.06732914983206
303051074,Pallara - Willawong,-27.621392076118934,153.00332877688888
303051075,Parkinson - Drewvale,-27.644501640115116,153.03876128564772
303051076,Rocklea - Acacia Ridge,-27.56783668060636,153.01226958286853
303061077,Kuraby,-27.606841216714972,153.0937456813686
303061078,Runcorn,-27.598182796984087,153.07678316578668
303061079,Sunnybank,-27.578408657348877,153.05951147921385
303061080,Sunnybank Hills,-27.59596156341607,153.05213815281718
304011081,Jindalee - Mount Ommaney,-27.540034484725975,152.93501732633857
304011082,Middle Park - Jamboree Heights,-27.556099454914673,152.92731404397136
304011083,Riverhills,-27.56187027597397,152.90941235892694
304011084,Seventeen Mile Rocks - Sinnamon Park,-27.54580791540716,152.95205861269417
304011085,Westlake,-27.548622713712717,152.91275892179962
304021086,Bellbowrie - Moggill,-27.573027867887347,152.8792426764812
304021087,Brookfield - Kenmore Hills,-27.476981265008863,152.87535668451076
304021088,Chapel Hill,-27.498885863922435,152.9483795071034
304021089,Fig Tree Pocket,-27.527839027348133,152.9619009973611
304021090,Kenmore,-27.516833590025733,152.93763218213934
304021091,Pinjarra Hills - Pullenvale,-27.525322483164285,152.87853536370693
304031092,Chelmer - Graceville,-27.517775319557057,152.97881038267252
304031093,Corinda,-27.543255971431766,152.98374511021672
304031094,Indooroopilly,-27.506345367088393,152.97986608993975
304031095,Sherwood,-27.53053126498065,152.98116780395932
304031096,St Lucia,-27.498064270774485,153.00492211284686
304031097,Taringa,-27.493496648094492,152.98195271222752
304041098,Enoggera,-27.42716485466031,152.9747975734273
304041099,Enoggera Reservoir,-27.433463320989603,152.87052415388487
304041100,Keperra,-27.413770220905583,152.9522076180446
304041101,Mitchelton,-27.412107112829258,152.97043401059125
304041102,Mount Coot-tha,-27.474903776781602,152.94853384621982
304041103,The Gap,-27.44590305143292,152.9412489068876
304041104,Upper Kedron - Ferny Grove,-27.414346913086185,152.9205767488619
305011105,Brisbane City,-27.468325606178894,153.0230729227891
305011106,Fortitude Valley,-27.456336432585797,153.03532309913595
305011107,Highgate Hill,-27.48753687634499,153.01748507518795
305011108,Kangaroo Point,-27.476666210162623,153.0367355044524
305011109,New Farm,-27.466426133202216,153.04564735299513
305011110,South Brisbane,-27.47907569594489,153.01988753751021
305011111,Spring Hill,-27.459461501562664,153.02460650678492
305011112,West End,-27.48339803935946,153.00586886563204
305021113,Balmoral,-27.456149042480824,153.0675533486008
305021114,Bulimba,-27.44856342845828,153.05927911155996
305021115,East Brisbane,-27.483916372964142,153.0468441582915
305021116,Hawthorne,-27.463964763839915,153.05923072694452
305021117,Morningside - Seven Hills,-27.46651869109666,153.07640739856146
305021118,Norman Park,-27.480148212669437,153.06296573089782
305031119,Albion,-27.432555569642126,153.0444688541029
305031120,Alderley,-27.42562522819873,153.00099964263225
305031121,Ascot,-27.429855237122087,153.06612616717885
305031122,Clayfield,-27.419149135789535,153.0544398872846
305031123,Grange,-27.422589045899844,153.01526886892088
305031124,Hamilton (Qld),-27.436588563042296,153.06182530677134
305031125,Hendra,-27.417747374753326,153.070254701504
305031126,Kelvin Grove - Herston,-27.448868592081343,153.01689985973033
305031127,Newmarket,-27.435293743856572,153.00781097016414
305031128,Newstead - Bowen Hills,-27.447924081358178,153.04066481999874
305031129,Wilston,-27.434747012811005,153.01862713115096
305031130,Windsor,-27.434213703019395,153.03015893699614
305031131,Wooloowin - Lutwyche,-27.41710246778427,153.0406485633394
305041132,Ashgrove,-27.44427137802632,152.98190919178194
305041133,Auchenflower,-27.473840265465515,152.9951158510625
305041134,Bardon,-27.46098953370128,152.97923510211788
305041135,Paddington - Milton,-27.46303435473168,152.9997355011378
305041136,Red Hill (Qld),-27.452467531785416,153.00206945588502
305041137,Toowong,-27.481467350099873,152.98403239855526
306011138,Brinsmead,-16.899206272119663,145.71553540356652
306011139,Clifton Beach - Kewarra Beach,-16.774646788659428,145.661378080244
306011140,Freshwater - Stratford,-16.878449387413873,145.74647445179585
306011141,Redlynch,-16.894711452370945,145.6911542462732
306011142,Trinity Beach - Smithfield,-16.81479787596456,145.6931881782353
306011143,Yorkeys Knob - Machans Beach,-16.838264370128883,145.72620656763797
306021144,Bentley Park,-17.008308472955513,145.7221831058781
306021145,Cairns City,-16.91459779956709,145.7658750245161
306021146,Earlville - Bayview Heights,-16.95545108511671,145.72840537058053
306021147,Edmonton,-17.017443648699015,145.74074139644182
306021148,Gordonvale - Trinity,-17.059279894851368,145.78722938638558
306021149,Kanimbla - Mooroobool,-16.929962631385905,145.72661956046443
306021150,Lamb Range,-17.052725422142785,145.68127824797108
306021151,Manoora,-16.917059301610898,145.73665403672805
306021152,Manunda,-16.917206830932415,145.7492024631238
306021153,Mount Sheridan,-16.98886036976924,145.7321860225807
306021154,Westcourt - Bungalow,-16.94117290615181,145.7625176299947
306021155,White Rock,-16.978531844146513,145.75777954134455
306021156,Whitfield - Edge Hill,-16.900003718786316,145.73609482691967
306021157,Woree,-16.95924580448274,145.7458376181736
306031158,Babinda,-17.34984287245105,145.93992590892557
306031159,Innisfail,-17.521691795807055,146.0318294616084
306031160,Johnstone,-17.690518438472246,145.93136328071654
306031161,Tully,-18.119866388881672,145.92581136626043
306031162,Wooroonooran,-17.3803796378081,145.80073147233142
306031163,Yarrabah,-16.994515685164043,145.8971528440017
306041164,Daintree,-16.191920352325024,145.26963051124125
306041165,Port Douglas,-16.584766752751346,145.48440330174756
306051166,Atherton,-17.215933928253442,145.4636482284509
306051167,Herberton,-18.035020217676877,145.2783094569121
306051168,Kuranda,-16.83258481113029,145.56567578323546
306051169,Malanda - Yungaburra,-17.36800522215205,145.6131033616535
306051170,Mareeba,-17.03790481472492,145.49622907361874
307011171,Balonne,-28.315939779494524,148.1174175360376
307011172,Chinchilla,-26.370156143999548,150.68877705784817
307011173,Goondiwindi,-28.397916139825607,150.357139532335
307011174,Inglewood - Waggamba,-28.399239244312827,150.3327141085757
307011175,Miles - Wandoan,-26.402670038871833,149.91915521774564
307011176,Roma,-26.563154978375128,148.8039672488426
307011177,Roma Surrounds,-26.541583500062455,148.28611637458934
307011178,Tara,-27.503822378222168,150.16937070582418
307021179,Crows Nest - Rosalie,-27.135616921961965,151.89546841031574
307021180,Jondaryan,-27.429885147919542,151.4882693752313
307021181,Millmerran,-27.85361201958249,151.12043016810028
307021182,Pittsworth,-27.71454961374933,151.58160620819024
307021183,Wambo,-27.0328288269547,151.17345464428132
307031184,Clifton - Greenmount,-27.867130848915707,151.91317997202705
307031185,Southern Downs - East,-28.22446893426105,152.2307700205517
307031186,Southern Downs - West,-28.180214190486446,151.82195819562136
307031187,Stanthorpe,-28.659901521861997,151.93761559731496
307031188,Stanthorpe Surrounds,-28.739320342642234,151.72318637925838
307031189,Warwick,-28.232469844751453,152.0059802119241
308011190,Central Highlands - East,-23.922348384100992,149.32808295361215
308011191,Central Highlands - West,-24.077526914485492,148.01701871869435
308011192,Emerald,-23.535489625322562,148.16255510828938
308031205,Berserker,-23.37345622951205,150.5307734563507
308031206,Bouldercombe,-23.627884044934284,150.62562917385054
308031207,Emu Park,-23.258901625351506,150.79749365327123
308031208,Frenchville - Mount Archer,-23.330414146412767,150.57387279908522
308031209,Glenlee - Rockyview,-23.23161141381987,150.45821868070627
308031210,Gracemere,-23.487817049726985,150.4120124791671
308031211,Lakes Creek,-23.368626136886274,150.56511182397068
308031212,Mount Morgan,-23.72084406719247,150.39471131150904
308031213,Norman Gardens,-23.30201649174159,150.5538970507383
308031214,Park Avenue,-23.357696324170597,150.51193511461005
308031215,Parkhurst - Kawana,-23.31395932981582,150.50510525762695
308031216,Rockhampton - West,-23.397859294944627,150.47095854406328
308031217,Rockhampton City,-23.416523897547414,150.53792886809285
308031218,Rockhampton Surrounds - East,-23.36625162276092,150.70561574837623
308031219,Rockhampton Surrounds - North,-22.79647650543246,150.01894711445522
308031220,Rockhampton Surrounds - West,-23.35391802904814,150.04972452392724
308031221,Shoalwater Bay,-22.62847307030258,150.4597256850807
308031222,The Range - Allenstown,-23.392818875669,150.49936145401747
308031223,Yeppoon,-23.154801968324595,150.73748851933928
308041528,Banana,-24.933815840428927,149.9408059648429
308041529,Biloela,-24.39807281235866,150.51647364471205
308051530,Agnes Water - Miriam Vale,-24.394649793062207,151.70492337412963
308051531,Boyne Island - Tannum Sands,-23.973589144471976,151.3608048119389
308051532,Callemondah,-23.839729960884483,151.2065902755664
308051533,Clinton - New Auckland,-23.88713604974568,151.223168660116
308051534,Gladstone,-23.85194319331287,151.26113835187323
308051535,Gladstone Hinterland,-24.057669509853735,151.0739504016298
308051536,Kin Kora - Sun Valley,-23.876409791690556,151.250701139641
308051537,South Trees,-23.88205471216944,151.29578226727804
308051538,Telina - Toolooa,-23.91262964138562,151.26871945895658
308051539,West Gladstone,-23.858384801489045,151.2465597682776
309011224,Broadbeach Waters,-28.026964860121744,153.4149232200085
309011225,Burleigh Heads,-28.10239132604566,153.43516678400198
309011226,Burleigh Waters,-28.087299467857644,153.43223090150724
309011227,Mermaid Beach - Broadbeach,-28.03793299115838,153.4341088751367
309011228,Mermaid Waters,-28.04982251142648,153.42149677362437
309011229,Miami,-28.0682131315841,153.4358513565687
309021230,Coolangatta,-28.169745341588357,153.5337005753467
309021231,Currumbin - Tugun,-28.149547978595976,153.49419495238186
309021232,Currumbin Waters,-28.154214783870998,153.46266773732611
309021233,Elanora,-28.135832153289805,153.44917736765063
309021234,Palm Beach,-28.11598044850217,153.46310213304716
309031235,Arundel,-27.937638388454566,153.36290529287407
309031236,Biggera Waters,-27.92979814751149,153.3914441352225
309031237,Coombabah,-27.910688939802128,153.37096464330259
309031238,Labrador,-27.946202271264266,153.39787863078632
309031239,Paradise Point - Hollywell,-27.88511271039472,153.39532165741943
309031240,Runaway Bay,-27.913862010405847,153.39774713640614
309041241,Guanaba - Springbrook,-28.115206136827805,153.2552824113036
309041242,Tamborine - Canungra,-28.095673297966243,153.14932226087203
309051243,Currumbin Valley - Tallebudgera,-28.188722357851873,153.3789779608779
309051244,Mudgeeraba - Bonogin,-28.121097187600828,153.35060533429584
309051245,Reedy Creek - Andrews,-28.113474055496916,153.40187296739302
309061246,Carrara,-28.02150612684587,153.3663424427998
309061247,Highland Park,-28.01566210640656,153.33548087146116
309061248,Nerang - Mount Nathan,-27.990157166774814,153.30029663978362
309061249,Pacific Pines - Gaven,-27.947232852354073,153.32315257968628
309061250,Worongary - Tallai,-28.053249954285196,153.33155799248613
309071251,Coomera,-27.846926067644745,153.33964992557407
309071252,Helensvale,-27.900887263777385,153.3374044004827
309071253,Hope Island,-27.840535416192164,153.39713498572746
309071254,Jacobs Well - Alberton,-27.748157951691713,153.33857069509108
309071256,Oxenford - Maudsland,-27.920571102018293,153.29171042358107
309071552,Ormeau (East) - Stapylton,-27.7476288703408,153.25137301290297
309071553,Ormeau (West) - Yatala,-27.77923712571969,153.21831233637985
309071554,Pimpama - North,-27.809113555199012,153.31820449011153
309071555,Pimpama - South,-27.82922922102227,153.31331494895562
309071556,Upper Coomera (South) - Wongawallan,-27.875303755858045,153.22589529104724
309071557,Upper Coomera - North,-27.865610299155332,153.29203986779197
309071558,Willow Vale - Pimpama (West),-27.8345189567897,153.2519631543187
309081259,Clear Island Waters,-28.041956943035625,153.3973029954502
309081260,Merrimac,-28.050847207718046,153.37308036482716
309081262,Varsity Lakes,-28.088881712265856,153.41106434900075
309081559,Robina - East,-28.07105096747476,153.40285991718795
309081560,Robina - West,-28.0704480119705,153.38105146604252
309091263,Ashmore,-27.988791564944506,153.37637357465331
309091264,Molendinar,-27.974022376933654,153.36070696658888
309091265,Parkwood,-27.95458659625819,153.36295418782132
309091540,Southport - North,-27.965134440707683,153.3963715982356
309091541,Southport - South,-27.983626980555677,153.4050279555685
309101267,Benowa,-28.00769608518477,153.38583131229737
309101268,Bundall,-28.011116184614174,153.40480385901873
309101269,Main Beach,-27.956948135970887,153.4258598452672
309101561,Surfers Paradise - North,-27.992957737976113,153.42433351703176
309101562,Surfers Paradise - South,-28.00966531093731,153.422507467082
310011271,Darra - Sumner,-27.56760401369457,152.9479922421604
310011272,Durack,-27.589089581233235,152.98558476689738
310011274,Inala - Richlands,-27.591769393073157,152.96289627035205
310011275,Oxley (Qld),-27.561627303667205,152.97587662714415
310011276,Wacol,-27.588617220537117,152.9219648255077
310011563,Doolandella,-27.613244877573646,152.9840931757522
310011564,Forest Lake - Ellen Grove,-27.619748272607303,152.95897318139527
310021277,Boonah,-27.994226748030535,152.61251820360002
310021278,Esk,-27.206918809552935,152.4382851761681
310021279,Lake Manchester - England Creek,-27.414281422714524,152.76390488002397
310021280,Lockyer Valley - East,-27.643365875640637,152.3794046459227
310021281,Lowood,-27.441491953156298,152.57696804316208
310021282,Rosewood,-27.681567506992945,152.57923105193373
310031283,Brassall,-27.59011061002556,152.73635442287699
310031284,Bundamba,-27.607479562791173,152.8112477847402
310031285,Churchill - Yamanto,-27.6499187514254,152.74237045287703
310031286,Ipswich - Central,-27.617072668496444,152.75464381835232
310031287,Ipswich - East,-27.611770119302673,152.78397748442993
310031288,Ipswich - North,-27.546453292132316,152.73547243819016
310031289,Karalee - Barellan Point,-27.562989704404593,152.8289225638508
310031290,Karana Downs,-27.51964930135536,152.79322488446078
310031291,Leichhardt - One Mile,-27.605554001863016,152.71620991403012
310031292,North Ipswich - Tivoli,-27.590637174836115,152.77271037281554
310031293,Raceview,-27.643731811468854,152.77275807827652
310031294,Ripley,-27.699510566999585,152.81487297676034
310031295,Riverview,-27.591452535880663,152.84162012174284
310041297,Camira - Gailes,-27.631199951104588,152.91978522806468
310041298,Carole Park,-27.621248423112498,152.92959555671484
310041299,Collingwood Park - Redbank,-27.61192779661413,152.86453107141017
310041300,Goodna,-27.611726876848824,152.89249921683813
310041301,New Chum,-27.617952447848772,152.83265760326012
310041302,Redbank Plains,-27.65130305741645,152.85043186199587
310041303,Springfield,-27.652546863064412,152.9101493021812
310041304,Springfield Lakes,-27.68536522536441,152.90502901488978
310041565,Augustine Heights - Brookwater,-27.6615059088335,152.88748638321456
310041566,Bellbird Park,-27.6367386751571,152.88662907743733
311011305,Beaudesert,-28.13758676680992,152.91932120015372
311021306,Beenleigh,-27.715105975380375,153.19356261349986
311021307,Eagleby,-27.698587607741448,153.21927889744188
311021308,Edens Landing - Holmview,-27.710541456830008,153.17002068099933
311021309,Mount Warren Park,-27.73102975172167,153.205439340612
311021310,Wolffdene - Bahrs Scrub,-27.759755543695785,153.17529753477262
311031311,Boronia Heights - Park Ridge,-27.705073151361233,153.04084602618408
311031312,Browns Plains,-27.662697377442502,153.0626637261502
311031313,Chambers Flat - Logan Reserve,-27.73674602931518,153.0888549180779
311031314,Crestmead,-27.687594703963697,153.0844415390221
311031315,Greenbank Military Camp,-27.671437119364693,152.97066917817932
311031316,Hillcrest,-27.665166896011975,153.01164339531877
311031317,Marsden,-27.673487172308064,153.09757286773902
311031318,Munruben - Park Ridge South,-27.737896726274048,153.03477299255496
311031319,Regents Park - Heritage Park,-27.679628033467523,153.05106220195526
311041322,Logan Village,-27.77216772342107,153.10835075480097
311041567,Flagstone (East) - Riverbend,-27.820521434827974,152.9699149322699
311041568,Flagstone (West) - New Beith,-27.790218369658653,152.88614763139222
311041569,Greenbank - North Maclean,-27.74469146630563,152.97828291444878
311041570,Jimboomba - Glenlogan,-27.866912133918756,153.03521173885423
311041571,Yarrabilba,-27.825230470873375,153.13802856613972
311051323,Bethania - Waterford,-27.69857044427994,153.14874170564678
311051324,Cornubia - Carbrook,-27.66871298577711,153.2389042768787
311051325,Loganholme - Tanah Merah,-27.68017097492719,153.18176527282284
311051326,Loganlea,-27.670283163360125,153.13877525205038
311051327,Shailer Park,-27.649770829158054,153.17755124775977
311051328,Waterford West,-27.692774561733312,153.1255100934389
311061329,Daisy Hill,-27.630257052559138,153.1578380297988
311061330,Kingston (Qld),-27.659240860969316,153.11310589381472
